id,title,placename,state,lga,parish,feature_term,latitude,longitude,source,flag,description,datestart,dateend,linkback,tlcmaplink,layerlink,state_id
a17a6d,Deadmans Point,Deadmans Point,TAS,Tasman,,Point,-43.054,147.834,TAS LGA,Only accurate to LGA,Superseded,,,,http://tlcmap.org/ghap/search?id=a17a6d,http://tlcmap.org/ghap,1288
a13dfc,Adventure Bay,Adventure Bay,TAS,Kingborough,,bay1,-43.31000137,147.3399963,Australian Gazetteer,,,,,,http://tlcmap.org/ghap/search?id=a13dfc,http://tlcmap.org/ghap,1288
a1808c,Fortescue Forest Reserve,Fortescue Forest Reserve,TAS,Tasman,,Reserve,-43.054,147.834,TAS LGA,Only accurate to LGA,Superseded,,,,http://tlcmap.org/ghap/search?id=a1808c,http://tlcmap.org/ghap,1288
a18907,Judds Falls,Judds Falls,TAS,Derwent Valley,,Waterfall,-42.813,146.423,TAS LGA,Only accurate to LGA,Superseded,,,,http://tlcmap.org/ghap/search?id=a18907,http://tlcmap.org/ghap,1288
a13dfd,Bruny Island,Bruny Island,TAS,KINGBOROUGH,,island1,-43.29000092,147.2799988,Australian Gazetteer,,,,,,http://tlcmap.org/ghap/search?id=a13dfd,http://tlcmap.org/ghap,1288
a18aa8,Lady Bay,Lady Bay,TAS,Tasman,,Bay,-43.054,147.834,TAS LGA,Only accurate to LGA,Superseded,,,,http://tlcmap.org/ghap/search?id=a18aa8,http://tlcmap.org/ghap,1288
a18ad7,Lake Anthony,Lake Anthony,TAS,West Coast,,Lake,-42.296,145.628,TAS LGA,Only accurate to LGA,Superseded,,,,http://tlcmap.org/ghap/search?id=a18ad7,http://tlcmap.org/ghap,1288
a13dfe,Penguin Island,Penguin Island,TAS,KINGBOROUGH,,island1,-43.34999847,147.3600006,Australian Gazetteer,,,,,,http://tlcmap.org/ghap/search?id=a13dfe,http://tlcmap.org/ghap,1288
a18c5f,Lanka Mine,Lanka Mine,TAS,Dorset,,Mine,-41.0,148.0299988,Australian Gazetteer,,Unofficial,,,,http://tlcmap.org/ghap/search?id=a18c5f,http://tlcmap.org/ghap,1288
a13dff,Gordon River,Gordon River,TAS,DERWENT VALLEY,,river,-42.43999863,145.6600037,Australian Gazetteer,,,,,,http://tlcmap.org/ghap/search?id=a13dff,http://tlcmap.org/ghap,1288
a18dd1,Little Fisher Falls,Little Fisher Falls,TAS,Meander Valley,,Waterfall,-41.627,146.486,TAS LGA,Only accurate to LGA,Superseded,,,,http://tlcmap.org/ghap/search?id=a18dd1,http://tlcmap.org/ghap,1288
a13e00,Recherche Bay,Recherche Bay,TAS,HUON VALLEY,,bay1,-43.54999924,146.8999939,Australian Gazetteer,,,,,,http://tlcmap.org/ghap/search?id=a13e00,http://tlcmap.org/ghap,1288
a193ad,Mount Bramich,Mount Bramich,TAS,Flinders,,Mountain,-40.119,148.096,TAS LGA,Only accurate to LGA,Superseded,,,,http://tlcmap.org/ghap/search?id=a193ad,http://tlcmap.org/ghap,1288
a13e01,New Norfolk,New Norfolk,TAS,DERWENT VALLEY,,locality (bounded),-42.77999878,147.0500031,Australian Gazetteer,,,,,,http://tlcmap.org/ghap/search?id=a13e01,http://tlcmap.org/ghap,1288
a193dc,Mount Cracroft,Mount Cracroft,TAS,West Coast,,Mountain,-42.296,145.628,TAS LGA,Only accurate to LGA,Unofficial,,,,http://tlcmap.org/ghap/search?id=a193dc,http://tlcmap.org/ghap,1288
a1981e,Old Pier Beach,Old Pier Beach,TAS,Dorset,,Beach,-41.07,147.709,TAS LGA,Only accurate to LGA,Superseded,,,,http://tlcmap.org/ghap/search?id=a1981e,http://tlcmap.org/ghap,1288
a19a61,Pearces Reserve,Pearces Reserve,TAS,Hobart,,Park,-42.898,147.288,TAS LGA,Only accurate to LGA,Official,,,,http://tlcmap.org/ghap/search?id=a19a61,http://tlcmap.org/ghap,1288
a168ff,Meredith Peak,Meredith Peak,TAS,SOUTHERN MIDLANDS,,hill,-42.434,147.401,TAS LGA,Only accurate to LGA,unidentified hill S of Spring Hill Tier and Constitution Hill,,,,http://tlcmap.org/ghap/search?id=a168ff,http://tlcmap.org/ghap,1288
a16961,Mount De Witt,Mount De Witt,TAS,,,mountain,,,,,,,,,http://tlcmap.org/ghap/search?id=a16961,http://tlcmap.org/ghap,1288
a16b31,Abels Bay,Abels Bay,TAS,Huon Valley,,Bay,-43.22999954,147.0899963,Australian Gazetteer,,Official,,,,http://tlcmap.org/ghap/search?id=a16b31,http://tlcmap.org/ghap,1288
a16b32,Abels Bay,Abels Bay,TAS,Huon Valley,,Suburb/Locality,-43.22000122,147.0899963,Australian Gazetteer,,Official,,,,http://tlcmap.org/ghap/search?id=a16b32,http://tlcmap.org/ghap,1288
a19c48,Punchbowl Reserve,Punchbowl Reserve,TAS,Launceston,,Reserve,-41.361,147.304,TAS LGA,Only accurate to LGA,Official,,,,http://tlcmap.org/ghap/search?id=a19c48,http://tlcmap.org/ghap,1288
a16b33,Abels Creek,Abels Creek,TAS,West Coast,,Stream,-42.56000137,145.6699982,Australian Gazetteer,,Official,,,,http://tlcmap.org/ghap/search?id=a16b33,http://tlcmap.org/ghap,1288
a19c49,Punchbowl,Punchbowl,TAS,Northern Midlands,,Hill,-41.84,147.46,TAS LGA,Only accurate to LGA,Superseded,,,,http://tlcmap.org/ghap/search?id=a19c49,http://tlcmap.org/ghap,1288
a19f57,Rosevears,Rosevears,TAS,West Tamar,,Electorate,-41.28,146.865,TAS LGA,Only accurate to LGA,Official,,,,http://tlcmap.org/ghap/search?id=a19f57,http://tlcmap.org/ghap,1288
a1a16c,Second Little Beach,Second Little Beach,TAS,West Tamar,,Beach,-41.28,146.865,TAS LGA,Only accurate to LGA,Superseded,,,,http://tlcmap.org/ghap/search?id=a1a16c,http://tlcmap.org/ghap,1288
a1a1b2,Seventy Mile Creek,Seventy Mile Creek,TAS,Derwent Valley,,Stream,-42.813,146.423,TAS LGA,Only accurate to LGA,Unofficial,,,,http://tlcmap.org/ghap/search?id=a1a1b2,http://tlcmap.org/ghap,1288
a1a1e1,Shark Cove,Shark Cove,TAS,Flinders,,Cove,-40.5,148.1100006,Australian Gazetteer,,Official,,,,http://tlcmap.org/ghap/search?id=a1a1e1,http://tlcmap.org/ghap,1288
a1a779,Tasman Island,Tasman Island,TAS,Tasman,,Island,-43.22999954,148.0,Australian Gazetteer,,Official,,,,http://tlcmap.org/ghap/search?id=a1a779,http://tlcmap.org/ghap,1288
a16b34,Abels Hill,Abels Hill,TAS,Launceston,,Hill,-41.45000076,147.2100067,Australian Gazetteer,,Official,,,,http://tlcmap.org/ghap/search?id=a16b34,http://tlcmap.org/ghap,1288
a16b35,Abels Marsh,Abels Marsh,TAS,Derwent Valley,,Swamp,-42.66999817,147.0500031,Australian Gazetteer,,Official,,,,http://tlcmap.org/ghap/search?id=a16b35,http://tlcmap.org/ghap,1288
a16b36,Abeona Creek,Abeona Creek,TAS,King Island,,Stream,-39.84000015,144.1100006,Australian Gazetteer,,Official,,,,http://tlcmap.org/ghap/search?id=a16b36,http://tlcmap.org/ghap,1288
a16b37,Abeona Head,Abeona Head,TAS,Huon Valley,,Point,-43.50999832,146.1600037,Australian Gazetteer,,Official,,,,http://tlcmap.org/ghap/search?id=a16b37,http://tlcmap.org/ghap,1288
a16b38,Abercrombie,Abercrombie,TAS,Northern Midlands,,Place Name,-41.93000031,147.4100037,Australian Gazetteer,,Unofficial,,,,http://tlcmap.org/ghap/search?id=a16b38,http://tlcmap.org/ghap,1288
a16b39,Aberdeen,Aberdeen,TAS,Devonport,,Suburb/Locality,-41.24000168,146.3200073,Australian Gazetteer,,Official,,,,http://tlcmap.org/ghap/search?id=a16b39,http://tlcmap.org/ghap,1288
a16b3a,Aberfoyle Creek,Aberfoyle Creek,TAS,Northern Midlands,,Stream,-41.63000107,147.75,Australian Gazetteer,,Official,,,,http://tlcmap.org/ghap/search?id=a16b3a,http://tlcmap.org/ghap,1288
a1a84c,The Deep Hole,The Deep Hole,TAS,Glamorgan-Spring Bay,,Stream,-42.266,147.97,TAS LGA,Only accurate to LGA,Superseded,,,,http://tlcmap.org/ghap/search?id=a1a84c,http://tlcmap.org/ghap,1288
a1a898,The Iron Rocks,The Iron Rocks,TAS,Northern Midlands,,Beach,-41.84,147.46,TAS LGA,Only accurate to LGA,Superseded,,,,http://tlcmap.org/ghap/search?id=a1a898,http://tlcmap.org/ghap,1288
a16b3b,Aberfoyle Hill,Aberfoyle Hill,TAS,Dorset,,Hill,-40.90999985,147.9400024,Australian Gazetteer,,Official,,,,http://tlcmap.org/ghap/search?id=a16b3b,http://tlcmap.org/ghap,1288
a16b3c,Abo Creek,Abo Creek,TAS,West Coast,,Stream,-42.296,145.628,TAS LGA,Only accurate to LGA,Official,,,,http://tlcmap.org/ghap/search?id=a16b3c,http://tlcmap.org/ghap,1288
a16b3d,Abrahams Creek,Abrahams Creek,TAS,Break O'Day,,Stream,-41.47999954,147.6900024,Australian Gazetteer,,Official,,,,http://tlcmap.org/ghap/search?id=a16b3d,http://tlcmap.org/ghap,1288
a1a899,The Island,The Island,TAS,Central Highlands,,Island,-42.212,146.646,TAS LGA,Only accurate to LGA,Superseded,,,,http://tlcmap.org/ghap/search?id=a1a899,http://tlcmap.org/ghap,1288
a1aa2a,Toles Creek,Toles Creek,TAS,Dorset,,Stream,-41.25,147.3899994,Australian Gazetteer,,Official,,,,http://tlcmap.org/ghap/search?id=a1aa2a,http://tlcmap.org/ghap,1288
a16b3e,Abrahams Creek,Abrahams Creek,TAS,Northern Midlands,,Stream,-41.86999893,147.0500031,Australian Gazetteer,,Official,,,,http://tlcmap.org/ghap/search?id=a16b3e,http://tlcmap.org/ghap,1288
a16b3f,Abrotanella Rise,Abrotanella Rise,TAS,Huon Valley,,Hill,-43.20999908,146.5800018,Australian Gazetteer,,Official,,,,http://tlcmap.org/ghap/search?id=a16b3f,http://tlcmap.org/ghap,1288
a16b40,Abscida Falls,Abscida Falls,TAS,Huon Valley,,Waterfall,-43.24000168,146.2700043,Australian Gazetteer,,Official,,,,http://tlcmap.org/ghap/search?id=a16b40,http://tlcmap.org/ghap,1288
a16b41,Abyssinia Creek,Abyssinia Creek,TAS,Central Highlands,,Stream,-42.40000153,146.9600067,Australian Gazetteer,,Official,,,,http://tlcmap.org/ghap/search?id=a16b41,http://tlcmap.org/ghap,1288
a16b42,Acacia Hills,Acacia Hills,TAS,Kentish,,Suburb/Locality,-41.27000046,146.3300018,Australian Gazetteer,,Official,,,,http://tlcmap.org/ghap/search?id=a16b42,http://tlcmap.org/ghap,1288
a16b43,Acacia Rocks,Acacia Rocks,TAS,West Coast,,Island,-42.88000107,145.4100037,Australian Gazetteer,,Official,,,,http://tlcmap.org/ghap/search?id=a16b43,http://tlcmap.org/ghap,1288
a16b44,Access Creek,Access Creek,TAS,Central Highlands,,Stream,-42.27000046,146.1199951,Australian Gazetteer,,Unofficial,,,,http://tlcmap.org/ghap/search?id=a16b44,http://tlcmap.org/ghap,1288
a16b45,Ache Creek,Ache Creek,TAS,Waratah-Wynyard,,Stream,-41.43999863,145.3500061,Australian Gazetteer,,Official,,,,http://tlcmap.org/ghap/search?id=a16b45,http://tlcmap.org/ghap,1288
a16b46,Acheron River,Acheron River,TAS,West Coast,,Stream,-42.43000031,145.8500061,Australian Gazetteer,,Official,,,,http://tlcmap.org/ghap/search?id=a16b46,http://tlcmap.org/ghap,1288
a13dd7,Port Sorell,Port Sorell,TAS,LATROBE,,town,-41.15999985,146.5500031,Australian Gazetteer,,NW coast,,,,http://tlcmap.org/ghap/search?id=a13dd7,http://tlcmap.org/ghap,1288
a13dd8,Burgess,Burgess,TAS,LATROBE,,town,-41.241,146.56,TAS LGA,Only accurate to LGA,"previous name of Port Sorell, ANPS ID 81367",,,,http://tlcmap.org/ghap/search?id=a13dd8,http://tlcmap.org/ghap,1288
a13dda,Sullivans Cove,Sullivans Cove,TAS,HOBART,,cove1,-42.88000107,147.3300018,Australian Gazetteer,,"on the Derwent, site of Hobart",,,,http://tlcmap.org/ghap/search?id=a13dda,http://tlcmap.org/ghap,1288
a13ddb,Stanley,Stanley,TAS,CIRCULAR HEAD,,town,-41.066,145.012,TAS LGA,Only accurate to LGA,,,,,http://tlcmap.org/ghap/search?id=a13ddb,http://tlcmap.org/ghap,1288
a13ddc,Circular Head,Circular Head,TAS,CIRCULAR HEAD,,town,-41.066,145.012,TAS LGA,Only accurate to LGA,"Variant name for Stanley, ANPS ID 81371",,,,http://tlcmap.org/ghap/search?id=a13ddc,http://tlcmap.org/ghap,1288
a13ddd,Circular Head,Circular Head,TAS,CIRCULAR HEAD,,hill,-40.75999832,145.3000031,Australian Gazetteer,,,,,,http://tlcmap.org/ghap/search?id=a13ddd,http://tlcmap.org/ghap,1288
a13dde,The Nut,The Nut,TAS,CIRCULAR HEAD,,hill,-40.75999832,145.3000031,Australian Gazetteer,,"variant name for Circular Head, ANPS 81373, 1599W",,,,http://tlcmap.org/ghap/search?id=a13dde,http://tlcmap.org/ghap,1288
a13ddf,Surrey Hills,Surrey Hills,TAS,WARATAH-WYNYARD,,District1,-41.50999832,145.7100067,Australian Gazetteer,,,,,,http://tlcmap.org/ghap/search?id=a13ddf,http://tlcmap.org/ghap,1288
a13de0,Hampshire Hills,Hampshire Hills,TAS,,,locality (unbounded),-41.50999832,145.7100067,Variant,,"near Surrey Hills, ANPS ID 81375",,,,http://tlcmap.org/ghap/search?id=a13de0,http://tlcmap.org/ghap,1288
a13de1,St Valentine's Peak,St Valentine's Peak,TAS,WARATAH-WYNYARD,,peak2,-41.382,145.496,TAS LGA,Only accurate to LGA,,,,,http://tlcmap.org/ghap/search?id=a13de1,http://tlcmap.org/ghap,1288
a13de2,Cape Grim,Cape Grim,TAS,CIRCULAR HEAD,,cape,-40.68000031,144.6799927,Australian Gazetteer,,,,,,http://tlcmap.org/ghap/search?id=a13de2,http://tlcmap.org/ghap,1288
a13de3,Hellyer Gorge,Hellyer Gorge,TAS,WARATAH-WYNYARD,,ravine,-41.27000046,145.6100006,Australian Gazetteer,,,,,,http://tlcmap.org/ghap/search?id=a13de3,http://tlcmap.org/ghap,1288
a13de4,Jacob's Boat Harbour,Jacob's Boat Harbour,TAS,WARATAH-WYNYARD,,harbour,-41.382,145.496,TAS LGA,Only accurate to LGA,"variant of Jacobs Boat Harbour, TAS ID 2335H",,,,http://tlcmap.org/ghap/search?id=a13de4,http://tlcmap.org/ghap,1288
a13de5,Boat Harbour,Boat Harbour,TAS,WARATAH-WYNYARD,,harbour,-41.382,145.496,TAS LGA,Only accurate to LGA,"variant of Jacobs Boat Harbour, TAS ID 2335H; TAS says JBH is the official name for the harbour, BH for the suburb",,,,http://tlcmap.org/ghap/search?id=a13de5,http://tlcmap.org/ghap,1288
a13de6,Milkshakes Hills,Milkshakes Hills,TAS,CIRCULAR HEAD,,hill,-41.066,145.012,TAS LGA,Only accurate to LGA,"variant of Milkshake Hills, ANPS 81627, TAS ID 4335W",,,,http://tlcmap.org/ghap/search?id=a13de6,http://tlcmap.org/ghap,1288
a13de7,Mt Cameron West,Mt Cameron West,TAS,CIRCULAR HEAD,,mountain,-41.066,145.012,TAS LGA,Only accurate to LGA,,,,,http://tlcmap.org/ghap/search?id=a13de7,http://tlcmap.org/ghap,1288
a13de8,Preminghana,Preminghana,TAS,CIRCULAR HEAD,,mountain,-41.066,145.012,TAS LGA,Only accurate to LGA,"alternative to Mt Cameron West, TAS ID 19297D, ANPS ID 81383",,,,http://tlcmap.org/ghap/search?id=a13de8,http://tlcmap.org/ghap,1288
a13de9,Preminghana-Mt Cameron West,Preminghana-Mt Cameron West,TAS,CIRCULAR HEAD,,mountain,-41.066,145.012,TAS LGA,Only accurate to LGA,"? Dual name for Mt Cameron West, TAS ID 19297D, ANPS ID 81383",,,,http://tlcmap.org/ghap/search?id=a13de9,http://tlcmap.org/ghap,1288
a13dea,Arthur Pieman Conservation Area,Arthur Pieman Conservation Area,TAS,CIRCULAR HEAD,,conservation park,-41.066,145.012,TAS LGA,Only accurate to LGA,official name is hyphenated,,,,http://tlcmap.org/ghap/search?id=a13dea,http://tlcmap.org/ghap,1288
a13deb,the Tarkine,the Tarkine,TAS,CIRCULAR HEAD,,conservation park,-41.066,145.012,TAS LGA,Only accurate to LGA,"alternative name of Arthur-Pieman Conservation Area, TAS ID 38232M, ANPS ID 81386",,,,http://tlcmap.org/ghap/search?id=a13deb,http://tlcmap.org/ghap,1288
a13dec,Sarah Island,Sarah Island,TAS,WEST COAST,,island1,-42.38000107,145.4400024,Australian Gazetteer,,,,,,http://tlcmap.org/ghap/search?id=a13dec,http://tlcmap.org/ghap,1288
a13ded,Settlement Island,Settlement Island,TAS,WEST COAST,,island1,-42.296,145.628,TAS LGA,Only accurate to LGA,"possibly former name of Sarah Island, TAS ID 6494T, ANPS ID 81388",,,,http://tlcmap.org/ghap/search?id=a13ded,http://tlcmap.org/ghap,1288
a13dee,Launceston,Launceston,TAS,LAUNCESTON,,city,-41.43999863,147.1399994,Australian Gazetteer,,,,,,http://tlcmap.org/ghap/search?id=a13dee,http://tlcmap.org/ghap,1288
a13def,Patersonia,Patersonia,TAS,LAUNCESTON,,city,-41.361,147.304,TAS LGA,Only accurate to LGA,"former name of Launceston, TAS ID 338C, ANPS ID 81390; now a suburb name, TAS ID 1181J",,,,http://tlcmap.org/ghap/search?id=a13def,http://tlcmap.org/ghap,1288
a13df0,Bay of Fires,Bay of Fires,TAS,BREAK O'DAY,,bay1,-41.13999939,148.3000031,Australian Gazetteer,,,,,,http://tlcmap.org/ghap/search?id=a13df0,http://tlcmap.org/ghap,1288
a13df1,St Helens Point,St Helens Point,TAS,BREAK O'DAY,,point1,-41.27000046,148.3500061,Australian Gazetteer,,,,,,http://tlcmap.org/ghap/search?id=a13df1,http://tlcmap.org/ghap,1288
a13df2,Goulds Country,Goulds Country,TAS,BREAK O'DAY,,Suburb/Locality,-41.24000168,148.0500031,Australian Gazetteer,,,,,,http://tlcmap.org/ghap/search?id=a13df2,http://tlcmap.org/ghap,1288
a13df3,Waubs Boat Harbour,Waubs Boat Harbour,TAS,GLAMORGAN-SPRING BAY,,cove1,-42.266,147.97,TAS LGA,Only accurate to LGA,"alternative name of Waubs Gulch, 22004N",,,,http://tlcmap.org/ghap/search?id=a13df3,http://tlcmap.org/ghap,1288
a13df4,The Gulch,The Gulch,TAS,GLAMORGAN-SPRING BAY,,cove1,-42.266,147.97,TAS LGA,Only accurate to LGA,"superseded name for Waubs Gulch, TAS ID 22004N",,,,http://tlcmap.org/ghap/search?id=a13df4,http://tlcmap.org/ghap,1288
a13df5,Freycinet Peninsula,Freycinet Peninsula,TAS,GLAMORGAN-SPRING BAY,,peninsula,-42.20999908,148.3000031,Australian Gazetteer,,,,,,http://tlcmap.org/ghap/search?id=a13df5,http://tlcmap.org/ghap,1288
a13df6,Schouten Island,Schouten Island,TAS,GLAMORGAN-SPRING BAY,,island1,-42.31000137,148.2700043,Australian Gazetteer,,,,,,http://tlcmap.org/ghap/search?id=a13df6,http://tlcmap.org/ghap,1288
a13df7,The Hazards,The Hazards,TAS,GLAMORGAN-SPRING BAY,,hill,-42.15000153,148.2899933,Australian Gazetteer,,,,,,http://tlcmap.org/ghap/search?id=a13df7,http://tlcmap.org/ghap,1288
a13df8,Coles Bay,Coles Bay,TAS,GLAMORGAN-SPRING BAY,,bay1,-42.13000107,148.2899933,Australian Gazetteer,,,,,,http://tlcmap.org/ghap/search?id=a13df8,http://tlcmap.org/ghap,1288
a13df9,Wineglass Bay,Wineglass Bay,TAS,GLAMORGAN-SPRING BAY,,bay1,-42.15999985,148.3000031,Australian Gazetteer,,"S 42° 10' 4''	E 148° 1 8''.  Note previous name of ""Thouin Bay""; cf ANPS ID 108925",,,,http://tlcmap.org/ghap/search?id=a13df9,http://tlcmap.org/ghap,1288
a13dfa,Maria Island,Maria Island,TAS,GLAMORGAN-SPRING BAY,,island1,-42.61999893,148.0800018,Australian Gazetteer,,,,,,http://tlcmap.org/ghap/search?id=a13dfa,http://tlcmap.org/ghap,1288
a13dfb,Nubeena,Nubeena,TAS,TASMAN,,locality (bounded),-43.09999847,147.7400055,Australian Gazetteer,,,,,,http://tlcmap.org/ghap/search?id=a13dfb,http://tlcmap.org/ghap,1288
a13e14,Paradise,Paradise,TAS,KENTISH,,locality (bounded),-41.43000031,146.3099976,Australian Gazetteer,,,,,,http://tlcmap.org/ghap/search?id=a13e14,http://tlcmap.org/ghap,1288
a13e15,Beulah,Beulah,TAS,Kentish,,locality (bounded),-41.43999863,146.3699951,Australian Gazetteer,,,,,,http://tlcmap.org/ghap/search?id=a13e15,http://tlcmap.org/ghap,1288
a13e16,Reuben Austin's Paradise,Reuben Austin's Paradise,TAS,,,locality (bounded),-41.43000031,146.3099976,Variant,,"original form of Paradise, TAS ID 1176Q, ANPS ID 81428",,,,http://tlcmap.org/ghap/search?id=a13e16,http://tlcmap.org/ghap,1288
a13e17,Garden of Eden,Garden of Eden,TAS,KENTISH,,valley,-41.47000122,146.4199982,Australian Gazetteer,,,,,,http://tlcmap.org/ghap/search?id=a13e17,http://tlcmap.org/ghap,1288
a13e18,Promised Land,Promised Land,TAS,KENTISH,,locality (bounded),-41.41999817,146.2100067,Australian Gazetteer,,,,,,http://tlcmap.org/ghap/search?id=a13e18,http://tlcmap.org/ghap,1288
a13edb,Milkshake Hills,Milkshake Hills,TAS,CIRCULAR HEAD,,hill,-41.09999847,145.1600037,Australian Gazetteer,,,,,,http://tlcmap.org/ghap/search?id=a13edb,http://tlcmap.org/ghap,1288
a13f0d,Waubs Gulch,Waubs Gulch,TAS,GLAMORGAN-SPRING BAY,,cove1,-41.86999893,148.3099976,Australian Gazetteer,,,,,,http://tlcmap.org/ghap/search?id=a13f0d,http://tlcmap.org/ghap,1288
a16b47,Achilles River,Achilles River,TAS,West Coast,,Stream,-41.88000107,145.8899994,Australian Gazetteer,,Official,,,,http://tlcmap.org/ghap/search?id=a16b47,http://tlcmap.org/ghap,1288
a16b48,Ackerleys Gully,Ackerleys Gully,TAS,Glamorgan-Spring Bay,,Gully,-42.45000076,147.8399963,Australian Gazetteer,,Official,,,,http://tlcmap.org/ghap/search?id=a16b48,http://tlcmap.org/ghap,1288
a16b49,Actaeon Island,Actaeon Island,TAS,Huon Valley,,Island,-43.52000046,146.9900055,Australian Gazetteer,,Official,,,,http://tlcmap.org/ghap/search?id=a16b49,http://tlcmap.org/ghap,1288
a16b61,Adamsfield,Adamsfield,TAS,Derwent Valley,,District1,-42.72000122,146.3300018,Australian Gazetteer,,Official,,,,http://tlcmap.org/ghap/search?id=a16b61,http://tlcmap.org/ghap,1288
a16b62,Adamsfield Conservation Area,Adamsfield Conservation Area,TAS,Derwent Valley,,Reserve,-42.75,146.3200073,Australian Gazetteer,,Parks 14/15,,,,http://tlcmap.org/ghap/search?id=a16b62,http://tlcmap.org/ghap,1288
a16b63,Adamsons Falls,Adamsons Falls,TAS,Huon Valley,,Waterfall,-43.36000061,146.8399963,Australian Gazetteer,,Official,,,,http://tlcmap.org/ghap/search?id=a16b63,http://tlcmap.org/ghap,1288
a16b64,Adamsons Peak,Adamsons Peak,TAS,Huon Valley,,Mountain Peak,-43.34999847,146.8200073,Australian Gazetteer,,Official,,,,http://tlcmap.org/ghap/search?id=a16b64,http://tlcmap.org/ghap,1288
a16b65,Addison Creek,Addison Creek,TAS,Kentish,,Stream,-41.59000015,146.1399994,Australian Gazetteer,,Official,,,,http://tlcmap.org/ghap/search?id=a16b65,http://tlcmap.org/ghap,1288
a16962,Mount Heemskirk,Mount Heemskirk,TAS,WEST COAST,,mountain,-41.84999847,145.1699982,Australian Gazetteer,,41° 51 S / 145° 10 E,,,,http://tlcmap.org/ghap/search?id=a16962,http://tlcmap.org/ghap,1288
a16963,Mount Zeehan,Mount Zeehan,TAS,WEST COAST,,hill,-41.91999817,145.3200073,Australian Gazetteer,,41° 55 S / 145° 19 E,,,,http://tlcmap.org/ghap/search?id=a16963,http://tlcmap.org/ghap,1288
a16b66,Adelaide Bay,Adelaide Bay,TAS,Flinders,,Bay,-40.22999954,148.2299957,Australian Gazetteer,,Official,,,,http://tlcmap.org/ghap/search?id=a16b66,http://tlcmap.org/ghap,1288
a16b67,Adelaide Creek,Adelaide Creek,TAS,Circular Head,,Stream,-41.04999924,144.7899933,Australian Gazetteer,,Official,,,,http://tlcmap.org/ghap/search?id=a16b67,http://tlcmap.org/ghap,1288
a16b68,Adelaide Mine Creek,Adelaide Mine Creek,TAS,West Coast,,Stream,-41.88999939,145.4400024,Australian Gazetteer,,Official,,,,http://tlcmap.org/ghap/search?id=a16b68,http://tlcmap.org/ghap,1288
a16b69,Adelaide River,Adelaide River,TAS,West Coast,,Stream,-42.25,145.9700012,Australian Gazetteer,,Official,,,,http://tlcmap.org/ghap/search?id=a16b69,http://tlcmap.org/ghap,1288
a16b6a,Adit Creek,Adit Creek,TAS,Central Coast,,Stream,-41.22999954,146.0399933,Australian Gazetteer,,Official,,,,http://tlcmap.org/ghap/search?id=a16b6a,http://tlcmap.org/ghap,1288
a16b6b,Admiral Beach,Admiral Beach,TAS,King Island,,Beach,-39.863,143.985,TAS LGA,Only accurate to LGA,Superseded,,,,http://tlcmap.org/ghap/search?id=a16b6b,http://tlcmap.org/ghap,1288
a16a43,Isle Waterhouse,Isle Waterhouse,TAS,DORSET,,island1,-41.07,147.709,TAS LGA,Only accurate to LGA,Probably original of Waterhouse Island ID TAS 1860,,,,http://tlcmap.org/ghap/search?id=a16a43,http://tlcmap.org/ghap,1288
a16a44,Trefoil Island,Trefoil Island,TAS,CIRCULAR HEAD,,island1,-40.63000107,144.6799927,Australian Gazetteer,,,,,,http://tlcmap.org/ghap/search?id=a16a44,http://tlcmap.org/ghap,1288
a16a45,Barren Island,Barren Island,TAS,CIRCULAR HEAD,,island1,-41.066,145.012,TAS LGA,Only accurate to LGA,Possibly variant of Hunter Island State ID 04683,,,,http://tlcmap.org/ghap/search?id=a16a45,http://tlcmap.org/ghap,1288
a16b6d,Adventure Bay,Adventure Bay,TAS,Kingborough,,Suburb/Locality,-43.34999847,147.3200073,Australian Gazetteer,,Official,,,,http://tlcmap.org/ghap/search?id=a16b6d,http://tlcmap.org/ghap,1288
a16a46,Hunter's Isles,Hunter's Isles,TAS,CIRCULAR HEAD,,island group,-41.066,145.012,TAS LGA,Only accurate to LGA,Probably Flinders' name for the group of which Hunter Island is the main island,,,,http://tlcmap.org/ghap/search?id=a16a46,http://tlcmap.org/ghap,1288
a16a47,Mount Norfolk,Mount Norfolk,TAS,CIRCULAR HEAD,,mountain,-41.066,145.012,TAS LGA,Only accurate to LGA,State ID TAS 02166,,,,http://tlcmap.org/ghap/search?id=a16a47,http://tlcmap.org/ghap,1288
a16a48,The Friars,The Friars,TAS,KINGBOROUGH,,island group,-43.52000046,147.2899933,Australian Gazetteer,,,,,,http://tlcmap.org/ghap/search?id=a16a48,http://tlcmap.org/ghap,1288
a16a49,Point Hibbs,Point Hibbs,TAS,WEST COAST,,point1,-42.296,145.628,TAS LGA,Only accurate to LGA,Possibly now known as Hibbs Point State ID TAS 05346,,,,http://tlcmap.org/ghap/search?id=a16a49,http://tlcmap.org/ghap,1288
a16a4b,Norfolk Bay,Norfolk Bay,TAS,SORELL,,bay1,-42.781,147.69,TAS LGA,Only accurate to LGA,,,,,http://tlcmap.org/ghap/search?id=a16a4b,http://tlcmap.org/ghap,1288
a16a4c,Isle of Caves,Isle of Caves,TAS,SORELL,,island1,-42.90000153,147.6399994,Australian Gazetteer,,,,,,http://tlcmap.org/ghap/search?id=a16a4c,http://tlcmap.org/ghap,1288
a16a4d,Prince of Wales Bay,Prince of Wales Bay,TAS,GLENORCHY,,cove1,-42.839,147.22,TAS LGA,Only accurate to LGA,,,,,http://tlcmap.org/ghap/search?id=a16a4d,http://tlcmap.org/ghap,1288
a16a4e,King George's Plains,King George's Plains,TAS,,,pasture,,,,,,,,,http://tlcmap.org/ghap/search?id=a16a4e,http://tlcmap.org/ghap,1288
a16a4f,Herdsman's Cove,Herdsman's Cove,TAS,BRIGHTON,,inlet1,-42.72,147.26,TAS LGA,Only accurate to LGA,,,,,http://tlcmap.org/ghap/search?id=a16a4f,http://tlcmap.org/ghap,1288
a16a50,Vanderlin's Island,Vanderlin's Island,TAS,,,point1,,,,,near Schouten's Island; see Doc 1683,,,,http://tlcmap.org/ghap/search?id=a16a50,http://tlcmap.org/ghap,1288
a16a51,Benlomen,Benlomen,TAS,NORTHERN MIDLANDS,,mountain,-41.84,147.46,TAS LGA,Only accurate to LGA,SE Tas - see Doc 1686; ?variant of Ben Lomond State ID 05340,,,,http://tlcmap.org/ghap/search?id=a16a51,http://tlcmap.org/ghap,1288
a16a52,Cape Gloucester,Cape Gloucester,TAS,,,promontory1,,,,,,,,,http://tlcmap.org/ghap/search?id=a16a52,http://tlcmap.org/ghap,1288
a16b6e,Adventure Bay Beach,Adventure Bay Beach,TAS,Kingborough,,Beach,-43.36000061,147.3300018,Australian Gazetteer,,Official,,,,http://tlcmap.org/ghap/search?id=a16b6e,http://tlcmap.org/ghap,1288
a16b6f,Adventure Playground,Adventure Playground,TAS,Hobart,,Reserve,-42.86000061,147.3200073,Australian Gazetteer,,Official,,,,http://tlcmap.org/ghap/search?id=a16b6f,http://tlcmap.org/ghap,1288
a16b70,Aerial Cove,Aerial Cove,TAS,Huon Valley,,Cove,-54.49000168,158.9299927,Australian Gazetteer,,Official,,,,http://tlcmap.org/ghap/search?id=a16b70,http://tlcmap.org/ghap,1288
a16a94,Gloucester Island,Gloucester Island,TAS,,,island1,,,,,see Doc 1836,,,,http://tlcmap.org/ghap/search?id=a16a94,http://tlcmap.org/ghap,1288
a173a7,Bulger Hills,Bulger Hills,TAS,Dorset,,Hill,-41.0,147.6199951,Australian Gazetteer,,Official,,,,http://tlcmap.org/ghap/search?id=a173a7,http://tlcmap.org/ghap,1288
a174ea,Cape Adansan,Cape Adansan,TAS,Circular Head,,Cape,-41.066,145.012,TAS LGA,Only accurate to LGA,Superseded,,,,http://tlcmap.org/ghap/search?id=a174ea,http://tlcmap.org/ghap,1288
a16a97,Kent Group,Kent Group,TAS,FLINDERS,,island group,-39.45999908,147.3300018,Australian Gazetteer,,,,,,http://tlcmap.org/ghap/search?id=a16a97,http://tlcmap.org/ghap,1288
a175e9,Central Coast,Central Coast,TAS,Central Coast,,Municipality/City,-41.28,146.041,TAS LGA,Only accurate to LGA,SpecLegis,,,,http://tlcmap.org/ghap/search?id=a175e9,http://tlcmap.org/ghap,1288
a16a98,Albatross Island,Albatross Island,TAS,CIRCULAR HEAD,,island1,-40.36999893,144.6499939,Australian Gazetteer,,,,,,http://tlcmap.org/ghap/search?id=a16a98,http://tlcmap.org/ghap,1288
a16a99,Point Ebbs,Point Ebbs,TAS,,,point1,,,,,"a point south of Cape Grim, identified by Matthew Flinders as one thought to be an island by Tasman",,,,http://tlcmap.org/ghap/search?id=a16a99,http://tlcmap.org/ghap,1288
a176d1,Citadel Moat,Citadel Moat,TAS,Derwent Valley,,Lake,-42.813,146.423,TAS LGA,Only accurate to LGA,Superseded,,,,http://tlcmap.org/ghap/search?id=a176d1,http://tlcmap.org/ghap,1288
a16b28,Abbotsford Flat,Abbotsford Flat,TAS,Break O'Day,,Plain,-41.65999985,147.8600006,Australian Gazetteer,,Official,,,,http://tlcmap.org/ghap/search?id=a16b28,http://tlcmap.org/ghap,1288
a16b29,Abbotsham,Abbotsham,TAS,Central Coast,,Suburb/Locality,-41.20999908,146.1699982,Australian Gazetteer,,Official,,,,http://tlcmap.org/ghap/search?id=a16b29,http://tlcmap.org/ghap,1288
a16b2a,Abbotts Creek,Abbotts Creek,TAS,Northern Midlands,,Stream,-42.00999832,147.4199982,Australian Gazetteer,,Official,,,,http://tlcmap.org/ghap/search?id=a16b2a,http://tlcmap.org/ghap,1288
a16b2b,Abbotts Hill,Abbotts Hill,TAS,Central Highlands,,Hill,-42.59000015,146.8399963,Australian Gazetteer,,Official,,,,http://tlcmap.org/ghap/search?id=a16b2b,http://tlcmap.org/ghap,1288
a16b2c,Abbotts Hill,Abbotts Hill,TAS,Northern Midlands,,Hill,-42.0,147.4199982,Australian Gazetteer,,Official,,,,http://tlcmap.org/ghap/search?id=a16b2c,http://tlcmap.org/ghap,1288
a16b2d,Abbotts Lookout,Abbotts Lookout,TAS,Derwent Valley,,Hill,-42.77999878,146.6499939,Australian Gazetteer,,Official,,,,http://tlcmap.org/ghap/search?id=a16b2d,http://tlcmap.org/ghap,1288
a16b2e,Abel Creek,Abel Creek,TAS,Derwent Valley,,Stream,-42.68999863,146.3099976,Australian Gazetteer,,Official,,,,http://tlcmap.org/ghap/search?id=a16b2e,http://tlcmap.org/ghap,1288
a16b2f,Abel Gorge,Abel Gorge,TAS,Derwent Valley,,Ravine,-42.74000168,145.9100037,Australian Gazetteer,,Official,,,,http://tlcmap.org/ghap/search?id=a16b2f,http://tlcmap.org/ghap,1288
a16b30,Abel Peak,Abel Peak,TAS,West Coast,,Mountain Peak,-42.45999908,145.8300018,Australian Gazetteer,,Official,,,,http://tlcmap.org/ghap/search?id=a16b30,http://tlcmap.org/ghap,1288
a168e9,Macquarie Plains,Macquarie Plains,TAS,NORTHERN MIDLANDS,,plain2,-41.84,147.46,TAS LGA,Only accurate to LGA,not the present Macquarie Plains (State ID 1107K); on the N side of Elizabeth River and E of Campbelltown,,,,http://tlcmap.org/ghap/search?id=a168e9,http://tlcmap.org/ghap,1288
a168d7,Macquarie Point,Macquarie Point,TAS,HOBART,,point1,-42.898,147.288,TAS LGA,Only accurate to LGA,not the present Macquarie Point (State ID 2282P) but probably Selfs Point (State ID 5734B); on the W side of the Derwent River at New Town Bay,,,,http://tlcmap.org/ghap/search?id=a168d7,http://tlcmap.org/ghap,1288
a168d8,Mount Nelson,Mount Nelson,TAS,HOBART,,mountain,-42.91999817,147.3300018,Australian Gazetteer,,hill on the W side of the Derwent River about 2km SW by S of Sandy Bay Point and 2km NW of Cartwright Point,,,,http://tlcmap.org/ghap/search?id=a168d8,http://tlcmap.org/ghap,1288
a168d9,Elizabeth Valley,Elizabeth Valley,TAS,SOUTHERN MIDLANDS,,valley,-42.434,147.401,TAS LGA,Only accurate to LGA,valley between Kempton and Melton Mowbray,,,,http://tlcmap.org/ghap/search?id=a168d9,http://tlcmap.org/ghap,1288
a168da,Glen-forsa,Glen-forsa,TAS,SOUTHERN MIDLANDS,,glen,-42.434,147.401,TAS LGA,Only accurate to LGA,narrow valley N of Constitution Hill leading towards Kempton,,,,http://tlcmap.org/ghap/search?id=a168da,http://tlcmap.org/ghap,1288
a168db,Prospect Hill,Prospect Hill,TAS,CENTRAL HIGHLANDS,,hill,-42.212,146.646,TAS LGA,Only accurate to LGA,not the present hill or hills of that name; a hill in Spring Hill Tier,,,,http://tlcmap.org/ghap/search?id=a168db,http://tlcmap.org/ghap,1288
a168dc,Antills Ponds,Antills Ponds,TAS,SOUTHERN MIDLANDS,,locality (unbounded),-42.434,147.401,TAS LGA,Only accurate to LGA,between York Plains to the S and Salt Pan Plains to the N,,,,http://tlcmap.org/ghap/search?id=a168dc,http://tlcmap.org/ghap,1288
a168de,Gordon Plains,Gordon Plains,TAS,NORTHERN MIDLANDS,,plain2,-41.84,147.46,TAS LGA,Only accurate to LGA,on the E bank of the South Esk River in the vicinity of present-day Evandale,,,,http://tlcmap.org/ghap/search?id=a168de,http://tlcmap.org/ghap,1288
a168df,Macquarie Springs,Macquarie Springs,TAS,SOUTHERN MIDLANDS,,locality (unbounded),-42.434,147.401,TAS LGA,Only accurate to LGA,NE of Lake Dulverton below Weedings Hill,,,,http://tlcmap.org/ghap/search?id=a168df,http://tlcmap.org/ghap,1288
a168e0,Meehan Valley,Meehan Valley,TAS,SOUTHERN MIDLANDS,,valley,-42.434,147.401,TAS LGA,Only accurate to LGA,valley to the S of York Plains,,,,http://tlcmap.org/ghap/search?id=a168e0,http://tlcmap.org/ghap,1288
a168e1,Mount Henrietta,Mount Henrietta,TAS,NORTHERN MIDLANDS,,hill,-41.84,147.46,TAS LGA,Only accurate to LGA,possible variant of Ansteys Hill (State ID 5470G),,,,http://tlcmap.org/ghap/search?id=a168e1,http://tlcmap.org/ghap,1288
a168e2,York Plains,York Plains,TAS,SOUTHERN MIDLANDS,,Suburb/Locality,-42.27000046,147.4400024,Australian Gazetteer,,on the E side of the Midland highway about 8km NE of Oatlands,,,,http://tlcmap.org/ghap/search?id=a168e2,http://tlcmap.org/ghap,1288
a168e3,Antill Plains,Antill Plains,TAS,NORTHERN MIDLANDS,,plain2,-41.84,147.46,TAS LGA,Only accurate to LGA,section of the present Argyle Plains (State ID 11329G) immediately S of Elizabeth River;,,,,http://tlcmap.org/ghap/search?id=a168e3,http://tlcmap.org/ghap,1288
a168e4,Argyle Plains,Argyle Plains,TAS,NORTHERN MIDLANDS,,plain2,-42.00999832,147.5299988,Australian Gazetteer,,to the E of the present town of Ross,,,,http://tlcmap.org/ghap/search?id=a168e4,http://tlcmap.org/ghap,1288
a168e5,Cock-Pitt Plains,Cock-Pitt Plains,TAS,NORTHERN MIDLANDS,,plain2,-41.84,147.46,TAS LGA,Only accurate to LGA,variant of Argyle Plains (State ID 11329G),,,,http://tlcmap.org/ghap/search?id=a168e5,http://tlcmap.org/ghap,1288
a168e6,Elizabeth River,Elizabeth River,TAS,NORTHERN MIDLANDS,,stream,-41.91999817,147.4700012,Australian Gazetteer,,"a stream rising in the hills W of Badajos Tier and flowing N, NW and W to join the Macquarie River about 5km W of Campbelltown",,,,http://tlcmap.org/ghap/search?id=a168e6,http://tlcmap.org/ghap,1288
a168e7,Grimes Lagoon,Grimes Lagoon,TAS,NORTHERN MIDLANDS,,lagoon1,-42.11000061,147.4799957,Australian Gazetteer,,Rescinded: a shallow stretch of water about 4km SW of Mona Vale,,,,http://tlcmap.org/ghap/search?id=a168e7,http://tlcmap.org/ghap,1288
a168e8,Maclaine Plains,Maclaine Plains,TAS,NORTHERN MIDLANDS,,plain2,-41.84,147.46,TAS LGA,Only accurate to LGA,part of the present Argyle Plains (State ID 11329G),,,,http://tlcmap.org/ghap/search?id=a168e8,http://tlcmap.org/ghap,1288
a168ea,Macquarie River,Macquarie River,TAS,NORTHERN MIDLANDS,,river,-41.58000183,147.1199951,Australian Gazetteer,,"a river rising in the mountains between Wingys Tier and Parramores Tier and flows S, then W and then generally NW to join the South Esk River near Longford",,,,http://tlcmap.org/ghap/search?id=a168ea,http://tlcmap.org/ghap,1288
a168eb,Mount Campbell,Mount Campbell,TAS,NORTHERN MIDLANDS,,mountain,-41.84,147.46,TAS LGA,Only accurate to LGA,variant of Mount Augusta (State ID 11539F); a mountain on the W side of the Midland Highway about 5km N of Ross and 6km S of Campbelltown,,,,http://tlcmap.org/ghap/search?id=a168eb,http://tlcmap.org/ghap,1288
a168ec,Relief Creek,Relief Creek,TAS,NORTHERN MIDLANDS,,stream,-41.84,147.46,TAS LGA,Only accurate to LGA,"variant of Elizabeth River (State ID 2636N); a stream rising in the hills W of Badajos Tier and flowing N, NW and W to join the Macquarie River about 5km W of Campbelltown",,,,http://tlcmap.org/ghap/search?id=a168ec,http://tlcmap.org/ghap,1288
a168ed,Henrietta Plains,Henrietta Plains,TAS,NORTHERN MIDLANDS,,plain2,-41.84,147.46,TAS LGA,Only accurate to LGA,lying between the Macquarie and South Esk Rivers to the N of the Hummocky Hills,,,,http://tlcmap.org/ghap/search?id=a168ed,http://tlcmap.org/ghap,1288
a168ee,Corri-Linn Cascade,Corri-Linn Cascade,TAS,LAUNCESTON,,stream,-41.361,147.304,TAS LGA,Only accurate to LGA,on the North Esk River about 1.6km E of Patersons Island,,,,http://tlcmap.org/ghap/search?id=a168ee,http://tlcmap.org/ghap,1288
a168ef,Charles Island,Charles Island,TAS,LAUNCESTON,,island2,-41.361,147.304,TAS LGA,Only accurate to LGA,an island in an unidentified location in the North Esk River,,,,http://tlcmap.org/ghap/search?id=a168ef,http://tlcmap.org/ghap,1288
a168f0,Breadalbane Plains,Breadalbane Plains,TAS,NORTHERN MIDLANDS,,plain2,-41.84,147.46,TAS LGA,Only accurate to LGA,lying between the South Esk and North Esk Rivers in the vicinity of present-day Breadalbane (State ID 922P) about 5km S of Launceston,,,,http://tlcmap.org/ghap/search?id=a168f0,http://tlcmap.org/ghap,1288
a168f1,George-Town,George-Town,TAS,GEORGE TOWN,,city,-41.102,147.025,TAS LGA,Only accurate to LGA,on the E side of Port Dalrymple at the mouth of the Tamar River,,,,http://tlcmap.org/ghap/search?id=a168f1,http://tlcmap.org/ghap,1288
a168f2,York Cove,York Cove,TAS,GEORGE TOWN,,cove1,-41.102,147.025,TAS LGA,Only accurate to LGA,a cove in Port Dalrymple near the mouth of the Tamar River,,,,http://tlcmap.org/ghap/search?id=a168f2,http://tlcmap.org/ghap,1288
a168f3,York River,York River,TAS,GEORGE TOWN,,stream,-41.102,147.025,TAS LGA,Only accurate to LGA,variant of York Creek (State ID 19188Q); stream entering Port Dalrymple at York Cove,,,,http://tlcmap.org/ghap/search?id=a168f3,http://tlcmap.org/ghap,1288
a168f4,Lachlan’s Resting Place,Lachlan’s Resting Place,TAS,GEORGE TOWN,,locality (unbounded),-41.102,147.025,TAS LGA,Only accurate to LGA,on the E bank of the Tamar River below the Tippogoree Hills,,,,http://tlcmap.org/ghap/search?id=a168f4,http://tlcmap.org/ghap,1288
a168f5,Cimitiere Valley,Cimitiere Valley,TAS,GEORGE TOWN,,valley,-41.102,147.025,TAS LGA,Only accurate to LGA,about 6km NE of the town of George Town,,,,http://tlcmap.org/ghap/search?id=a168f5,http://tlcmap.org/ghap,1288
a168f6,Campbell-Town,Campbell-Town,TAS,NORTHERN MIDLANDS,,locality (unbounded),-41.84,147.46,TAS LGA,Only accurate to LGA,on theMidland Highway where it crosses Elizabeth River,,,,http://tlcmap.org/ghap/search?id=a168f6,http://tlcmap.org/ghap,1288
a168f7,Perth,Perth,TAS,NORTHERN MIDLANDS,,Suburb/Locality,-41.61999893,147.1699982,Australian Gazetteer,,about 13km S of Launceston and 5km NE by east of Longford,,,,http://tlcmap.org/ghap/search?id=a168f7,http://tlcmap.org/ghap,1288
a168f8,Ross,Ross,TAS,NORTHERN MIDLANDS,,Suburb/Locality,-42.02000046,147.5,Australian Gazetteer,,on the Argyle Plains about 11km S of Campbell Town,,,,http://tlcmap.org/ghap/search?id=a168f8,http://tlcmap.org/ghap,1288
a168f9,Belle Vue,Belle Vue,TAS,SOUTHERN MIDLANDS,,hill,-42.434,147.401,TAS LGA,Only accurate to LGA,variant of Vincents Hill (State ID 13465N); a high hill 5km S by E of Antill Ponds,,,,http://tlcmap.org/ghap/search?id=a168f9,http://tlcmap.org/ghap,1288
a168fa,Curzon Downs,Curzon Downs,TAS,SOUTHERN MIDLANDS,,locality (unbounded),-42.434,147.401,TAS LGA,Only accurate to LGA,unidentified locality S of Spring Hill Tier and Constitution Hill,,,,http://tlcmap.org/ghap/search?id=a168fa,http://tlcmap.org/ghap,1288
a168fb,Curzon Peak,Curzon Peak,TAS,SOUTHERN MIDLANDS,,hill,-42.434,147.401,TAS LGA,Only accurate to LGA,unidentified hill S of Spring Hill Tier and Constitution Hill,,,,http://tlcmap.org/ghap/search?id=a168fb,http://tlcmap.org/ghap,1288
a168fc,Gordon Valley,Gordon Valley,TAS,SOUTHERN MIDLANDS,,valley,-42.434,147.401,TAS LGA,Only accurate to LGA,about 5km S of Oatlands,,,,http://tlcmap.org/ghap/search?id=a168fc,http://tlcmap.org/ghap,1288
a168fd,Meadow Banks,Meadow Banks,TAS,SOUTHERN MIDLANDS,,locality (unbounded),-42.434,147.401,TAS LGA,Only accurate to LGA,on the York Plains,,,,http://tlcmap.org/ghap/search?id=a168fd,http://tlcmap.org/ghap,1288
a168fe,Meredith Forest,Meredith Forest,TAS,SOUTHERN MIDLANDS,,locality (unbounded),-42.434,147.401,TAS LGA,Only accurate to LGA,unidentified locality S of Spring Hill Tier and Constitution Hill,,,,http://tlcmap.org/ghap/search?id=a168fe,http://tlcmap.org/ghap,1288
a16900,Mount Robeck,Mount Robeck,TAS,SOUTHERN MIDLANDS,,hill,-42.434,147.401,TAS LGA,Only accurate to LGA,"possible variant of Weedings Hill (State ID 11321M), Coal Mine Hill (State ID 5486B) or Mount Pleasant (State ID 5524C); a hill near York Plains",,,,http://tlcmap.org/ghap/search?id=a16900,http://tlcmap.org/ghap,1288
a16901,Mount Stewart,Mount Stewart,TAS,SOUTHERN MIDLANDS,,hill,-42.434,147.401,TAS LGA,Only accurate to LGA,"possible variant of Weedings Hill (State ID 11321M), Coal Mine Hill (State ID 5486B) or Mount Pleasant (State ID 5524C); a hill near York Plains",,,,http://tlcmap.org/ghap/search?id=a16901,http://tlcmap.org/ghap,1288
a16902,Oatlands,Oatlands,TAS,SOUTHERN MIDLANDS,,Suburb/Locality,-42.29999924,147.3699951,Australian Gazetteer,,on the Midland Highway at Lake Dulverton,,,,http://tlcmap.org/ghap/search?id=a16902,http://tlcmap.org/ghap,1288
a16903,Sorell Springs,Sorell Springs,TAS,NORTHERN MIDLANDS,,stream,-41.84,147.46,TAS LGA,Only accurate to LGA,variant of Tin Dish Rivulet (State ID 13678T); a small stream rising near Mount Seymour and flowing generally N to join Blackman River near Tunbridge,,,,http://tlcmap.org/ghap/search?id=a16903,http://tlcmap.org/ghap,1288
a16904,Wylde’s Hill,Wylde’s Hill,TAS,SOUTHERN MIDLANDS,,hill,-42.434,147.401,TAS LGA,Only accurate to LGA,"possible variant of Weedings Hill (State ID 11321M), Coal Mine Hill (State ID 5486B) or Mount Pleasant (State ID 5524C); a hill near York Plains",,,,http://tlcmap.org/ghap/search?id=a16904,http://tlcmap.org/ghap,1288
a16905,Brighton,Brighton,TAS,BRIGHTON,,locality (bounded),-42.68999863,147.25,Australian Gazetteer,,about 6km N of Bridgewater and 10km SSE of Bagdad,,,,http://tlcmap.org/ghap/search?id=a16905,http://tlcmap.org/ghap,1288
a16906,Harcourt Hill,Harcourt Hill,TAS,BRIGHTON,,hill,-42.72,147.26,TAS LGA,Only accurate to LGA,probable variant of Elliotts Hill (State ID 8790C); a hill about 2.5km NE by E of Jews Hill,,,,http://tlcmap.org/ghap/search?id=a16906,http://tlcmap.org/ghap,1288
a16907,Lachlan’s River,Lachlan’s River,TAS,DERWENT VALLEY,,river,-42.813,146.423,TAS LGA,Only accurate to LGA,variant of Lachlan River (State ID 5436C); stream rising in north western part of the Wellington Range and flowing north for  about 15km to enter the Derwent River at New Norfolk,,,,http://tlcmap.org/ghap/search?id=a16907,http://tlcmap.org/ghap,1288
a16908,Mount Price,Mount Price,TAS,BRIGHTON,,hill,-42.72,147.26,TAS LGA,Only accurate to LGA,probable variant of Jews Hill (State ID 2012M); northernmost peak on the Meehan Range about 2km ESE of present-day Brighton,,,,http://tlcmap.org/ghap/search?id=a16908,http://tlcmap.org/ghap,1288
a16909,Stonefield Plains,Stonefield Plains,TAS,BRIGHTON,,plain2,-42.72,147.26,TAS LGA,Only accurate to LGA,on the W bank of the Jordan River opposite the junction with Strathallan Rivulet,,,,http://tlcmap.org/ghap/search?id=a16909,http://tlcmap.org/ghap,1288
a1690a,Strathallan Creek,Strathallan Creek,TAS,BRIGHTON,,creek,-42.72,147.26,TAS LGA,Only accurate to LGA,variant of Strathallan Rivulet (State ID 2014R); a watercourse rising near Butlers Hill and running S then W to join the Bagdad Rivulet near Brighton,,,,http://tlcmap.org/ghap/search?id=a1690a,http://tlcmap.org/ghap,1288
a1690b,Thrupp Vale,Thrupp Vale,TAS,BRIGHTON,,valley,-42.72,147.26,TAS LGA,Only accurate to LGA,unidentified location possibly near Gage Brook (State ID 5431P),,,,http://tlcmap.org/ghap/search?id=a1690b,http://tlcmap.org/ghap,1288
a1690c,Mount Bell,Mount Bell,TAS,DERWENT VALLEY,,mountain,-42.813,146.423,TAS LGA,Only accurate to LGA,variant of Belmont (State ID 3180T); on the N side of the Derwent River about 3km SE of Rosegarland,,,,http://tlcmap.org/ghap/search?id=a1690c,http://tlcmap.org/ghap,1288
a1690d,Taylor’s Peak,Taylor’s Peak,TAS,DERWENT VALLEY,,hill,-42.813,146.423,TAS LGA,Only accurate to LGA,probable variant of either Peppermint Hill (State ID 5412H) or Bryn Estyn (State ID 9260J); on the S side of the Derwent River west of New Norfolk,,,,http://tlcmap.org/ghap/search?id=a1690d,http://tlcmap.org/ghap,1288
a1690e,Roseneath,Roseneath,TAS,GLENORCHY,,locality (unbounded),-42.839,147.22,TAS LGA,Only accurate to LGA,on the W bank of the Derwent River near Austins Ferry,,,,http://tlcmap.org/ghap/search?id=a1690e,http://tlcmap.org/ghap,1288
a1690f,Sorell,Sorell,TAS,SORELL,,Suburb/Locality,-42.77999878,147.5599976,Australian Gazetteer,,on the northern shore of Pitt Water about 25km ENE of Hobart,,,,http://tlcmap.org/ghap/search?id=a1690f,http://tlcmap.org/ghap,1288
a16910,Lachlan’s Island,Lachlan’s Island,TAS,GLAMORGAN-SPRING BAY,,island1,-42.266,147.97,TAS LGA,Only accurate to LGA,variant of Lachlan Island (State ID 2995S); an island in Mercury Passage about 5km SE of Johnsons Point and 3km NW of Point Lesueur on Maria Island,,,,http://tlcmap.org/ghap/search?id=a16910,http://tlcmap.org/ghap,1288
a16956,Tasmania,Tasmania,TAS,,,island1,,,,,,,,,http://tlcmap.org/ghap/search?id=a16956,http://tlcmap.org/ghap,1288
a1696d,Van Diemen's Land,Van Diemen's Land,TAS,,,island1,,,,,former name of Tasmania,,,,http://tlcmap.org/ghap/search?id=a1696d,http://tlcmap.org/ghap,1288
a16977,Tasman's Peak,Tasman's Peak,TAS,,,peak1,,,,,"SE Tasmania, north of Maria's Island",,,,http://tlcmap.org/ghap/search?id=a16977,http://tlcmap.org/ghap,1288
a16978,Bass Strait,Bass Strait,TAS,CENTRAL COAST,,strait,-40.70000076,145.7299957,Australian Gazetteer,,,,,,http://tlcmap.org/ghap/search?id=a16978,http://tlcmap.org/ghap,1288
a1697a,Derwent River,Derwent River,TAS,,,river,,,,,"runs through Hobart, Derwent Valley and the Central Highlands",,,,http://tlcmap.org/ghap/search?id=a1697a,http://tlcmap.org/ghap,1288
a1697c,Port Dalrymple,Port Dalrymple,TAS,GEORGE TOWN,,port,-41.13000107,146.8200073,Australian Gazetteer,,,,,,http://tlcmap.org/ghap/search?id=a1697c,http://tlcmap.org/ghap,1288
a16983,Longford,Longford,TAS,NORTHERN MIDLANDS,,suburb,-41.59000015,147.1199951,Australian Gazetteer,,,,,,http://tlcmap.org/ghap/search?id=a16983,http://tlcmap.org/ghap,1288
a1698a,Matilda Bay,Matilda Bay,TAS,GLAMORGAN-SPRING BAY,,bay1,-42.266,147.97,TAS LGA,Only accurate to LGA,"possibly, as suggested by Tim Flannery, former name for Wineglass Bay (State ID 3871J)",,,,http://tlcmap.org/ghap/search?id=a1698a,http://tlcmap.org/ghap,1288
a16a41,Kent's Groups,Kent's Groups,TAS,FLINDERS,,island group,-40.119,148.096,TAS LGA,Only accurate to LGA,"Probably now known as Kent Group, Tas ID 5356C ANPS ID 92823",,,,http://tlcmap.org/ghap/search?id=a16a41,http://tlcmap.org/ghap,1288
a16a42,Point Waterhouse,Point Waterhouse,TAS,DORSET,,point1,-41.07,147.709,TAS LGA,Only accurate to LGA,Probably original of Waterhouse Point ID TAS 1866,,,,http://tlcmap.org/ghap/search?id=a16a42,http://tlcmap.org/ghap,1288
a16a55,Stainforths Cove,Stainforths Cove,TAS,HOBART/GLENARCHY,,bay1,,,,,variant of New Town Bay (State ID 3242P),,,,http://tlcmap.org/ghap/search?id=a16a55,http://tlcmap.org/ghap,1288
a16a56,Sullivans Bay,Sullivans Bay,TAS,HOBART,,bay1,-42.898,147.288,TAS LGA,Only accurate to LGA,variant of Sullivans Cove (State ID 753M),,,,http://tlcmap.org/ghap/search?id=a16a56,http://tlcmap.org/ghap,1288
a16a57,Table Hill,Table Hill,TAS,HOBART,,hill,-42.898,147.288,TAS LGA,Only accurate to LGA,variant of Mount Wellington (State ID 755R),,,,http://tlcmap.org/ghap/search?id=a16a57,http://tlcmap.org/ghap,1288
a16a58,Hodgsons Point,Hodgsons Point,TAS,KINGBOROUGH,,point1,-43.193,147.263,TAS LGA,Only accurate to LGA,variant of Dennes Point (State ID 10061J),,,,http://tlcmap.org/ghap/search?id=a16a58,http://tlcmap.org/ghap,1288
a16a59,Point Lewis,Point Lewis,TAS,KINGBOROUGH,,point1,-43.193,147.263,TAS LGA,Only accurate to LGA,variant of Piersons Point (State ID 3625B),,,,http://tlcmap.org/ghap/search?id=a16a59,http://tlcmap.org/ghap,1288
a16a9a,Mount Heemskerk,Mount Heemskerk,TAS,WEST COAST,,mountain,-42.296,145.628,TAS LGA,Only accurate to LGA,"One of two elevations identified by Matthew Flinders on the west coast of Tasmania, and linked with Tasman's discoveries; variant of Mount Heemskirk, 92514 and TAS 18979W",,,,http://tlcmap.org/ghap/search?id=a16a9a,http://tlcmap.org/ghap,1288
a16a9c,Boreel's Isles,Boreel's Isles,TAS,KINGBOROUGH,,island group,-43.193,147.263,TAS LGA,Only accurate to LGA,Island group S of Bruny Island,,,,http://tlcmap.org/ghap/search?id=a16a9c,http://tlcmap.org/ghap,1288
a16a9e,Shoal Bay,Shoal Bay,TAS,GLAMORGAN-SPRING BAY,,bay1,-42.66999817,148.0500031,Australian Gazetteer,,,,,,http://tlcmap.org/ghap/search?id=a16a9e,http://tlcmap.org/ghap,1288
a16a9f,Cape Frederick Henry,Cape Frederick Henry,TAS,KINGBOROUGH,,point1,-43.193,147.263,TAS LGA,Only accurate to LGA,"Near mouth of Derwent. Not Cape Frederick Hendrik, TAS 4642X; more likely to be Cape Queen Elizabeth, TAS 18939C. See Doc 1855",,,,http://tlcmap.org/ghap/search?id=a16a9f,http://tlcmap.org/ghap,1288
a16aa0,Mount Zeehaan,Mount Zeehaan,TAS,WEST COAST,,hill,-42.296,145.628,TAS LGA,Only accurate to LGA,"One of two elevations identified by Matthew Flinders on the west coast of Tasmania, and linked with Tasman's discoveries; variant of Mount Zeehan, 92515 and TAS 19017W",,,,http://tlcmap.org/ghap/search?id=a16aa0,http://tlcmap.org/ghap,1288
a16acb,Hobart,Hobart,TAS,CLARENCE,,locality (unbounded),-42.842,147.438,TAS LGA,Only accurate to LGA,variant of Risdon (State ID 1211K) - first European settlement at the Derwent,,,,http://tlcmap.org/ghap/search?id=a16acb,http://tlcmap.org/ghap,1288
a16b20,A B C Creek,A B C Creek,TAS,Dorset,,Stream,-41.04000092,147.9400024,Australian Gazetteer,,Official,,,,http://tlcmap.org/ghap/search?id=a16b20,http://tlcmap.org/ghap,1288
a16b21,A J White Park,A J White Park,TAS,Hobart,,Park,-42.88000107,147.3300018,Australian Gazetteer,,Gazetted,,,,http://tlcmap.org/ghap/search?id=a16b21,http://tlcmap.org/ghap,1288
a16b22,Aarons Creek,Aarons Creek,TAS,Southern Midlands,,Stream,-42.43000031,147.4299927,Australian Gazetteer,,Official,,,,http://tlcmap.org/ghap/search?id=a16b22,http://tlcmap.org/ghap,1288
a16b23,Aarons Marsh,Aarons Marsh,TAS,Southern Midlands,,Swamp,-42.41999817,147.4199982,Australian Gazetteer,,Unofficial,,,,http://tlcmap.org/ghap/search?id=a16b23,http://tlcmap.org/ghap,1288
a16b24,Abbotsbury,Abbotsbury,TAS,Break O'Day,,Place Name,-41.04000092,148.2799988,Australian Gazetteer,,Unofficial,,,,http://tlcmap.org/ghap/search?id=a16b24,http://tlcmap.org/ghap,1288
a16b25,Abbotsfield Park,Abbotsfield Park,TAS,Glenorchy,,Sports Ground,-42.79000092,147.2400055,Australian Gazetteer,,Official,,,,http://tlcmap.org/ghap/search?id=a16b25,http://tlcmap.org/ghap,1288
a16b26,Abbotsfield Rivulet,Abbotsfield Rivulet,TAS,Glenorchy,,Stream,-42.79000092,147.2400055,Australian Gazetteer,,Official,,,,http://tlcmap.org/ghap/search?id=a16b26,http://tlcmap.org/ghap,1288
a16b27,Abbotsford Creek,Abbotsford Creek,TAS,Break O'Day,,Stream,-41.65999985,147.8800049,Australian Gazetteer,,Official,,,,http://tlcmap.org/ghap/search?id=a16b27,http://tlcmap.org/ghap,1288
a16b4a,Actaeon Island Game Reserve,Actaeon Island Game Reserve,TAS,Huon Valley,,Reserve,-43.52000046,146.9900055,Australian Gazetteer,,Parks 14/15,,,,http://tlcmap.org/ghap/search?id=a16b4a,http://tlcmap.org/ghap,1288
a16b4b,Acton,Acton,TAS,Burnie,,Suburb/Locality,-41.06000137,145.8899994,Australian Gazetteer,,Official,,,,http://tlcmap.org/ghap/search?id=a16b4b,http://tlcmap.org/ghap,1288
a16b4c,Acton Bay,Acton Bay,TAS,Circular Head,,Bay,-40.77999878,145.0200043,Australian Gazetteer,,Official,,,,http://tlcmap.org/ghap/search?id=a16b4c,http://tlcmap.org/ghap,1288
a16b4d,Acton Creek,Acton Creek,TAS,Clarence,,Stream,-42.86000061,147.4900055,Australian Gazetteer,,Official,,,,http://tlcmap.org/ghap/search?id=a16b4d,http://tlcmap.org/ghap,1288
a16b4e,Acton Hill,Acton Hill,TAS,Clarence,,Hill,-42.86999893,147.4499969,Australian Gazetteer,,Official,,,,http://tlcmap.org/ghap/search?id=a16b4e,http://tlcmap.org/ghap,1288
a16b4f,Acton Park,Acton Park,TAS,Clarence,,Suburb/Locality,-42.86999893,147.4700012,Australian Gazetteer,,Official,,,,http://tlcmap.org/ghap/search?id=a16b4f,http://tlcmap.org/ghap,1288
a16b50,Acton Recreation Ground,Acton Recreation Ground,TAS,Burnie,,Sports Ground,-41.06999969,145.8899994,Australian Gazetteer,,Official,,,,http://tlcmap.org/ghap/search?id=a16b50,http://tlcmap.org/ghap,1288
a16b51,Ada Lagoon,Ada Lagoon,TAS,Central Highlands,,Lagoon,-41.88000107,146.4499969,Australian Gazetteer,,Official,,,,http://tlcmap.org/ghap/search?id=a16b51,http://tlcmap.org/ghap,1288
a16b52,Adam Range,Adam Range,TAS,West Coast,,Mountains,-42.31000137,145.9700012,Australian Gazetteer,,Official,,,,http://tlcmap.org/ghap/search?id=a16b52,http://tlcmap.org/ghap,1288
a16b53,Adams Bay,Adams Bay,TAS,Derwent Valley,,Bay,-42.72000122,146.2799988,Australian Gazetteer,,Official,,,,http://tlcmap.org/ghap/search?id=a16b53,http://tlcmap.org/ghap,1288
a16b54,Adams Bay,Adams Bay,TAS,Kingborough,,Bay,-43.16999817,147.3600006,Australian Gazetteer,,Official,,,,http://tlcmap.org/ghap/search?id=a16b54,http://tlcmap.org/ghap,1288
a16b55,Adams Beach,Adams Beach,TAS,Dorset,,Beach,-40.97000122,147.3699951,Australian Gazetteer,,Official,,,,http://tlcmap.org/ghap/search?id=a16b55,http://tlcmap.org/ghap,1288
a16b56,Adams Creek,Adams Creek,TAS,Central Coast,,Stream,-41.16999817,145.9600067,Australian Gazetteer,,Official,,,,http://tlcmap.org/ghap/search?id=a16b56,http://tlcmap.org/ghap,1288
a16b57,Adams Cut,Adams Cut,TAS,Dorset,,Canal,-41.0,147.4499969,Australian Gazetteer,,Official,,,,http://tlcmap.org/ghap/search?id=a16b57,http://tlcmap.org/ghap,1288
a16b58,Adams Falls,Adams Falls,TAS,Derwent Valley,,Waterfall,-42.72000122,146.2899933,Australian Gazetteer,,Official,,,,http://tlcmap.org/ghap/search?id=a16b58,http://tlcmap.org/ghap,1288
a16b59,Adams Hill,Adams Hill,TAS,Glamorgan-Spring Bay,,Hill,-42.65999985,147.7100067,Australian Gazetteer,,Official,,,,http://tlcmap.org/ghap/search?id=a16b59,http://tlcmap.org/ghap,1288
a16b5a,Adams Hill,Adams Hill,TAS,Northern Midlands,,Hill,-41.54999924,147.5200043,Australian Gazetteer,,Official,,,,http://tlcmap.org/ghap/search?id=a16b5a,http://tlcmap.org/ghap,1288
a16b5b,Adams Hollow,Adams Hollow,TAS,Northern Midlands,,Depression ,-41.81999969,147.7700043,Australian Gazetteer,,Unofficial,,,,http://tlcmap.org/ghap/search?id=a16b5b,http://tlcmap.org/ghap,1288
a16b5c,Adams Marsh,Adams Marsh,TAS,Meander Valley,,Swamp,-41.54000092,146.5299988,Australian Gazetteer,,Unofficial,,,,http://tlcmap.org/ghap/search?id=a16b5c,http://tlcmap.org/ghap,1288
a16b5d,Adams Peak,Adams Peak,TAS,Central Highlands,,Mountain Peak,-41.72999954,146.6900024,Australian Gazetteer,,Official,,,,http://tlcmap.org/ghap/search?id=a16b5d,http://tlcmap.org/ghap,1288
a16b5e,Adams Point,Adams Point,TAS,Huon Valley,,Point,-43.56999969,146.8899994,Australian Gazetteer,,Official,,,,http://tlcmap.org/ghap/search?id=a16b5e,http://tlcmap.org/ghap,1288
a16b5f,Adams River,Adams River,TAS,Derwent Valley,,Stream,-42.70999908,146.3099976,Australian Gazetteer,,Official,,,,http://tlcmap.org/ghap/search?id=a16b5f,http://tlcmap.org/ghap,1288
a16b60,Adams Saddle,Adams Saddle,TAS,Kingborough,,Hill,-43.31000137,147.2700043,Australian Gazetteer,,Official,,,,http://tlcmap.org/ghap/search?id=a16b60,http://tlcmap.org/ghap,1288
a16b71,Aeroplane Corner,Aeroplane Corner,TAS,Circular Head,,Bay,-40.41999817,144.7799988,Australian Gazetteer,,Official,,,,http://tlcmap.org/ghap/search?id=a16b71,http://tlcmap.org/ghap,1288
a16b72,Aeson Creek,Aeson Creek,TAS,Break O'Day,,Stream,-41.29999924,148.1999969,Australian Gazetteer,,Official,,,,http://tlcmap.org/ghap/search?id=a16b72,http://tlcmap.org/ghap,1288
a16b73,Africa Gully,Africa Gully,TAS,Sorell,,Gully,-42.86999893,147.7899933,Australian Gazetteer,,Official,,,,http://tlcmap.org/ghap/search?id=a16b73,http://tlcmap.org/ghap,1288
a16b74,Africa Gully Nature Reserve,Africa Gully Nature Reserve,TAS,Sorell,,Reserve,-42.86000061,147.7899933,Australian Gazetteer,,Parks 14/15,,,,http://tlcmap.org/ghap/search?id=a16b74,http://tlcmap.org/ghap,1288
a16b75,African Marsh,African Marsh,TAS,Waratah-Wynyard,,Swamp,-41.52000046,145.75,Australian Gazetteer,,Official,,,,http://tlcmap.org/ghap/search?id=a16b75,http://tlcmap.org/ghap,1288
a16b76,Agate Creek,Agate Creek,TAS,Huon Valley,,Stream,-43.09999847,146.6199951,Australian Gazetteer,,Official,,,,http://tlcmap.org/ghap/search?id=a16b76,http://tlcmap.org/ghap,1288
a16b77,Agglomerate Hill,Agglomerate Hill,TAS,West Coast,,Hill,-42.02000046,145.5599976,Australian Gazetteer,,Official,,,,http://tlcmap.org/ghap/search?id=a16b77,http://tlcmap.org/ghap,1288
a16b78,Agnes Creek,Agnes Creek,TAS,Huon Valley,,Stream,-43.11999893,147.0899963,Australian Gazetteer,,Official,,,,http://tlcmap.org/ghap/search?id=a16b78,http://tlcmap.org/ghap,1288
a16b79,Agnes Creek,Agnes Creek,TAS,Tasman,,Stream,-43.13999939,147.9499969,Australian Gazetteer,,Official,,,,http://tlcmap.org/ghap/search?id=a16b79,http://tlcmap.org/ghap,1288
a16b7a,Agnes Rivulet,Agnes Rivulet,TAS,Huon Valley,,Stream,-43.11999893,147.0800018,Australian Gazetteer,,Official,,,,http://tlcmap.org/ghap/search?id=a16b7a,http://tlcmap.org/ghap,1288
a16b7b,Agnetes Garden,Agnetes Garden,TAS,Huon Valley,,Plain,-43.47999954,146.7599945,Australian Gazetteer,,Official,,,,http://tlcmap.org/ghap/search?id=a16b7b,http://tlcmap.org/ghap,1288
a16b7c,Agnew Creek,Agnew Creek,TAS,West Coast,,Stream,-41.90000153,145.2299957,Australian Gazetteer,,Official,,,,http://tlcmap.org/ghap/search?id=a16b7c,http://tlcmap.org/ghap,1288
a16b7d,Agnews Creek,Agnews Creek,TAS,Central Highlands,,Stream,-42.15999985,147.1900024,Australian Gazetteer,,Official,,,,http://tlcmap.org/ghap/search?id=a16b7d,http://tlcmap.org/ghap,1288
a16b7e,Agnews Marsh,Agnews Marsh,TAS,Central Highlands,,Swamp,-42.15999985,147.2100067,Australian Gazetteer,,Official,,,,http://tlcmap.org/ghap/search?id=a16b7e,http://tlcmap.org/ghap,1288
a16b7f,Ah Chees Lake,Ah Chees Lake,TAS,Meander Valley,,Lake,-41.86999893,146.3399963,Australian Gazetteer,,Official,,,,http://tlcmap.org/ghap/search?id=a16b7f,http://tlcmap.org/ghap,1288
a16b80,Ah Foo Creek,Ah Foo Creek,TAS,Dorset,,Stream,-41.22999954,147.8399963,Australian Gazetteer,,Official,,,,http://tlcmap.org/ghap/search?id=a16b80,http://tlcmap.org/ghap,1288
a16b81,Ah Kaw Creek,Ah Kaw Creek,TAS,Dorset,,Stream,-40.95999908,147.9900055,Australian Gazetteer,,Official,,,,http://tlcmap.org/ghap/search?id=a16b81,http://tlcmap.org/ghap,1288
a16b82,Ahearne Creek,Ahearne Creek,TAS,West Coast,,Stream,-41.70999908,145.3699951,Australian Gazetteer,,Official,,,,http://tlcmap.org/ghap/search?id=a16b82,http://tlcmap.org/ghap,1288
a16b83,Ahrberg Bay,Ahrberg Bay,TAS,West Coast,,Bay,-41.72000122,144.9499969,Australian Gazetteer,,Official,,,,http://tlcmap.org/ghap/search?id=a16b83,http://tlcmap.org/ghap,1288
a16b84,Ahrberg Hill,Ahrberg Hill,TAS,Waratah-Wynyard,,Hill,-41.63000107,145.0700073,Australian Gazetteer,,Official,,,,http://tlcmap.org/ghap/search?id=a16b84,http://tlcmap.org/ghap,1288
a16b85,Aikenhead Point,Aikenhead Point,TAS,Devonport,,Point,-41.15999985,146.3600006,Australian Gazetteer,,Official,,,,http://tlcmap.org/ghap/search?id=a16b85,http://tlcmap.org/ghap,1288
a16b86,Aikenhead Spit,Aikenhead Spit,TAS,Devonport,,Point,-41.15999985,146.3600006,Australian Gazetteer,,Official,,,,http://tlcmap.org/ghap/search?id=a16b86,http://tlcmap.org/ghap,1288
a16b87,Aikens Point,Aikens Point,TAS,Kingborough,,Point,-43.25999832,147.3000031,Australian Gazetteer,,Official,,,,http://tlcmap.org/ghap/search?id=a16b87,http://tlcmap.org/ghap,1288
a16b88,Ainslie Beach,Ainslie Beach,TAS,Circular Head,,Beach,-40.56000137,144.7700043,Australian Gazetteer,,Official,,,,http://tlcmap.org/ghap/search?id=a16b88,http://tlcmap.org/ghap,1288
a16b89,Aintrees Creek,Aintrees Creek,TAS,West Tamar,,Stream,-41.31999969,146.8899994,Australian Gazetteer,,Official,,,,http://tlcmap.org/ghap/search?id=a16b89,http://tlcmap.org/ghap,1288
a16b8a,Airstrip Rise,Airstrip Rise,TAS,Huon Valley,,Hill,-43.41999817,146.1600037,Australian Gazetteer,,Official,,,,http://tlcmap.org/ghap/search?id=a16b8a,http://tlcmap.org/ghap,1288
a16b8b,Aitken Creek,Aitken Creek,TAS,Kentish,,Stream,-41.31000137,146.3200073,Australian Gazetteer,,Official,,,,http://tlcmap.org/ghap/search?id=a16b8b,http://tlcmap.org/ghap,1288
a16b8c,Aitkens Hill,Aitkens Hill,TAS,Burnie,,Hill,-41.25,145.8399963,Australian Gazetteer,,Official,,,,http://tlcmap.org/ghap/search?id=a16b8c,http://tlcmap.org/ghap,1288
a16b8d,Ajax Creek,Ajax Creek,TAS,Waratah-Wynyard,,Stream,-41.38999939,145.4199982,Australian Gazetteer,,Official,,,,http://tlcmap.org/ghap/search?id=a16b8d,http://tlcmap.org/ghap,1288
a16b8e,Akaroa,Akaroa,TAS,Break O'Day,,Suburb/Locality,-41.29999924,148.3099976,Australian Gazetteer,,Official,,,,http://tlcmap.org/ghap/search?id=a16b8e,http://tlcmap.org/ghap,1288
a16b8f,Aladdin Bay,Aladdin Bay,TAS,Huon Valley,,Bay,-43.33000183,146.0,Australian Gazetteer,,Official,,,,http://tlcmap.org/ghap/search?id=a16b8f,http://tlcmap.org/ghap,1288
a16b90,Aladdins Cave,Aladdins Cave,TAS,Meander Valley,,Cave,-41.627,146.486,TAS LGA,Only accurate to LGA,Unofficial,,,,http://tlcmap.org/ghap/search?id=a16b90,http://tlcmap.org/ghap,1288
a16b91,Alanas Picnic Ground,Alanas Picnic Ground,TAS,Dorset,,Reserve,-41.04999924,147.6999969,Australian Gazetteer,,Official,,,,http://tlcmap.org/ghap/search?id=a16b91,http://tlcmap.org/ghap,1288
a16b92,Alanvale,Alanvale,TAS,Launceston,,"Locality, Unbounded",-41.38000107,147.1199951,Australian Gazetteer,,Official,,,,http://tlcmap.org/ghap/search?id=a16b92,http://tlcmap.org/ghap,1288
a16b93,Alanvale Bay,Alanvale Bay,TAS,Central Highlands,,Bay,-41.79999924,146.6799927,Australian Gazetteer,,Official,,,,http://tlcmap.org/ghap/search?id=a16b93,http://tlcmap.org/ghap,1288
a16b94,Alarm River,Alarm River,TAS,Circular Head,,Stream,-40.97000122,145.4499969,Australian Gazetteer,,Official,,,,http://tlcmap.org/ghap/search?id=a16b94,http://tlcmap.org/ghap,1288
a16b96,Albatross Island Nature Reserve,Albatross Island Nature Reserve,TAS,Circular Head,,Reserve,-40.36999893,144.6499939,Australian Gazetteer,,Parks 14/15,,,,http://tlcmap.org/ghap/search?id=a16b96,http://tlcmap.org/ghap,1288
a16b97,Alberry Creek,Alberry Creek,TAS,Tasman,,Stream,-43.13000107,147.8300018,Australian Gazetteer,,Official,,,,http://tlcmap.org/ghap/search?id=a16b97,http://tlcmap.org/ghap,1288
a16b98,Albert Creek,Albert Creek,TAS,Huon Valley,,Stream,-43.18000031,147.1499939,Australian Gazetteer,,Official,,,,http://tlcmap.org/ghap/search?id=a16b98,http://tlcmap.org/ghap,1288
a16b99,Albert Rapids,Albert Rapids,TAS,Derwent Valley,,Stream,-42.74000168,145.9499969,Australian Gazetteer,,Unofficial,,,,http://tlcmap.org/ghap/search?id=a16b99,http://tlcmap.org/ghap,1288
a16b9a,Albert River,Albert River,TAS,Derwent Valley,,Stream,-42.75,145.8999939,Australian Gazetteer,,Official,,,,http://tlcmap.org/ghap/search?id=a16b9a,http://tlcmap.org/ghap,1288
a16b9b,Alberton,Alberton,TAS,Dorset,,Suburb/Locality,-41.29000092,147.7799988,Australian Gazetteer,,Official,,,,http://tlcmap.org/ghap/search?id=a16b9b,http://tlcmap.org/ghap,1288
a16b9c,Alberton Creek,Alberton Creek,TAS,Dorset,,Stream,-41.31000137,147.7700043,Australian Gazetteer,,Official,,,,http://tlcmap.org/ghap/search?id=a16b9c,http://tlcmap.org/ghap,1288
a16b9d,Alberton Falls,Alberton Falls,TAS,Dorset,,Waterfall,-41.31999969,147.7700043,Australian Gazetteer,,Official,,,,http://tlcmap.org/ghap/search?id=a16b9d,http://tlcmap.org/ghap,1288
a16b9e,Alberton Rainforest,Alberton Rainforest,TAS,Dorset,,Forest,-41.31999969,147.7700043,Australian Gazetteer,,Unofficial,,,,http://tlcmap.org/ghap/search?id=a16b9e,http://tlcmap.org/ghap,1288
a16b9f,Alberts Marsh,Alberts Marsh,TAS,Break O'Day,,Swamp,-41.70999908,148.1100006,Australian Gazetteer,,Official,,,,http://tlcmap.org/ghap/search?id=a16b9f,http://tlcmap.org/ghap,1288
a16ba0,Albina Creek,Albina Creek,TAS,West Coast,,Stream,-42.40000153,145.25,Australian Gazetteer,,Official,,,,http://tlcmap.org/ghap/search?id=a16ba0,http://tlcmap.org/ghap,1288
a16ba1,Albina Rock,Albina Rock,TAS,West Coast,,Island,-42.40999985,145.2200012,Australian Gazetteer,,Official,,,,http://tlcmap.org/ghap/search?id=a16ba1,http://tlcmap.org/ghap,1288
a16ba2,Albion Creek,Albion Creek,TAS,Break O'Day,,Stream,-41.24000168,148.1999969,Australian Gazetteer,,Official,,,,http://tlcmap.org/ghap/search?id=a16ba2,http://tlcmap.org/ghap,1288
a16ba3,Albion Heights,Albion Heights,TAS,Kingborough,,Locality (unbounded),-42.93000031,147.3300018,Australian Gazetteer,,"Official; near Albion Heights Drive, Kingston. Feature class and position changed 21/03/2012",,,,http://tlcmap.org/ghap/search?id=a16ba3,http://tlcmap.org/ghap,1288
a16ba4,Albion Heights Reserve,Albion Heights Reserve,TAS,Kingborough,,Reserve,-43.193,147.263,TAS LGA,Only accurate to LGA,Unofficial,,,,http://tlcmap.org/ghap/search?id=a16ba4,http://tlcmap.org/ghap,1288
a16ba5,Alcomie,Alcomie,TAS,Circular Head,,Suburb/Locality,-40.93000031,145.1900024,Australian Gazetteer,,Official,,,,http://tlcmap.org/ghap/search?id=a16ba5,http://tlcmap.org/ghap,1288
a16ba6,Alec Rivulet,Alec Rivulet,TAS,West Coast,,Stream,-43.11000061,145.7400055,Australian Gazetteer,,Official,,,,http://tlcmap.org/ghap/search?id=a16ba6,http://tlcmap.org/ghap,1288
a16ba7,Alert Creek,Alert Creek,TAS,Circular Head,,Stream,-41.06999969,144.6799927,Australian Gazetteer,,Official,,,,http://tlcmap.org/ghap/search?id=a16ba7,http://tlcmap.org/ghap,1288
a16ba8,Alexander Creek,Alexander Creek,TAS,Burnie,,Stream,-41.06999969,145.8999939,Australian Gazetteer,,Official,,,,http://tlcmap.org/ghap/search?id=a16ba8,http://tlcmap.org/ghap,1288
a16ba9,Alexander Creek,Alexander Creek,TAS,Huon Valley,,Stream,-43.41999817,146.1300049,Australian Gazetteer,,Official,,,,http://tlcmap.org/ghap/search?id=a16ba9,http://tlcmap.org/ghap,1288
a16baa,Alexanders Bay,Alexanders Bay,TAS,Kingborough,,Bay,-43.13000107,147.3099976,Australian Gazetteer,,Official,,,,http://tlcmap.org/ghap/search?id=a16baa,http://tlcmap.org/ghap,1288
a16bab,Alexanders Spur,Alexanders Spur,TAS,Huon Valley,,Spur2,-43.11000061,146.5299988,Australian Gazetteer,,Official,,,,http://tlcmap.org/ghap/search?id=a16bab,http://tlcmap.org/ghap,1288
a16bac,Alexandra,Alexandra,TAS,Break O'Day,,Historical locality,-41.61999893,147.8600006,Australian Gazetteer,,Unofficial,,,,http://tlcmap.org/ghap/search?id=a16bac,http://tlcmap.org/ghap,1288
a16bad,Alexandra Battery Park,Alexandra Battery Park,TAS,Hobart,,Reserve,-42.90999985,147.3500061,Australian Gazetteer,,Official,,,,http://tlcmap.org/ghap/search?id=a16bad,http://tlcmap.org/ghap,1288
a16bae,Alexandra Hills,Alexandra Hills,TAS,West Coast,,Hill,-41.74000168,145.6799927,Australian Gazetteer,,Official,,,,http://tlcmap.org/ghap/search?id=a16bae,http://tlcmap.org/ghap,1288
a16baf,Alexandra Pass,Alexandra Pass,TAS,West Coast,,Pass,-41.74000168,145.6900024,Australian Gazetteer,,Official,,,,http://tlcmap.org/ghap/search?id=a16baf,http://tlcmap.org/ghap,1288
a16bb0,Alexandra Shelf,Alexandra Shelf,TAS,Huon Valley,,Mountain,-43.40999985,146.7400055,Australian Gazetteer,,Official,,,,http://tlcmap.org/ghap/search?id=a16bb0,http://tlcmap.org/ghap,1288
a16bb1,Alfhild Bight,Alfhild Bight,TAS,West Coast,,Bight,-43.22999954,145.8000031,Australian Gazetteer,,Official,,,,http://tlcmap.org/ghap/search?id=a16bb1,http://tlcmap.org/ghap,1288
a16bb2,Alfhild Creek,Alfhild Creek,TAS,West Coast,,Stream,-43.06000137,145.7299957,Australian Gazetteer,,Official,,,,http://tlcmap.org/ghap/search?id=a16bb2,http://tlcmap.org/ghap,1288
a16bb3,Alfhild Reef,Alfhild Reef,TAS,West Coast,,Reef,-43.22000122,145.7899933,Australian Gazetteer,,Official,,,,http://tlcmap.org/ghap/search?id=a16bb3,http://tlcmap.org/ghap,1288
a16bb4,Alford Creek,Alford Creek,TAS,Break O'Day,,Stream,-41.74000168,147.8200073,Australian Gazetteer,,Official,,,,http://tlcmap.org/ghap/search?id=a16bb4,http://tlcmap.org/ghap,1288
a16bb5,Alfords Creek,Alfords Creek,TAS,Waratah-Wynyard,,Stream,-41.47999954,145.25,Australian Gazetteer,,Official,,,,http://tlcmap.org/ghap/search?id=a16bb5,http://tlcmap.org/ghap,1288
a16bb6,Alfred Creek,Alfred Creek,TAS,Northern Midlands,,Stream,-42.20999908,147.7899933,Australian Gazetteer,,Official,,,,http://tlcmap.org/ghap/search?id=a16bb6,http://tlcmap.org/ghap,1288
a16bb7,Alfred River,Alfred River,TAS,West Coast,,Stream,-41.68999863,145.3999939,Australian Gazetteer,,Official,,,,http://tlcmap.org/ghap/search?id=a16bb7,http://tlcmap.org/ghap,1288
a16bb8,Alfs Creek,Alfs Creek,TAS,Glamorgan-Spring Bay,,Stream,-41.93000031,147.9700012,Australian Gazetteer,,Official,,,,http://tlcmap.org/ghap/search?id=a16bb8,http://tlcmap.org/ghap,1288
a16bb9,Alginate Bay,Alginate Bay,TAS,Glamorgan-Spring Bay,,Bay,-42.54000092,147.9100037,Australian Gazetteer,,Official,,,,http://tlcmap.org/ghap/search?id=a16bb9,http://tlcmap.org/ghap,1288
a16bba,Algonkian Mountain,Algonkian Mountain,TAS,West Coast,,Mountain,-42.38999939,146.0500031,Australian Gazetteer,,Official,,,,http://tlcmap.org/ghap/search?id=a16bba,http://tlcmap.org/ghap,1288
a16bbb,Algonkian Rivulet,Algonkian Rivulet,TAS,West Coast,,Stream,-42.43999863,146.0099945,Australian Gazetteer,,Official,,,,http://tlcmap.org/ghap/search?id=a16bbb,http://tlcmap.org/ghap,1288
a16bbc,Alhambra Creek,Alhambra Creek,TAS,Dorset,,Stream,-40.95999908,147.9799957,Australian Gazetteer,,Official,,,,http://tlcmap.org/ghap/search?id=a16bbc,http://tlcmap.org/ghap,1288
a16bbd,Alice Dam,Alice Dam,TAS,Southern Midlands,,Dam,-42.20000076,147.5,Australian Gazetteer,,Unofficial,,,,http://tlcmap.org/ghap/search?id=a16bbd,http://tlcmap.org/ghap,1288
a16bbe,Allanbys Hill,Allanbys Hill,TAS,Sorell,,Hill,-42.81999969,147.8200073,Australian Gazetteer,,Official,,,,http://tlcmap.org/ghap/search?id=a16bbe,http://tlcmap.org/ghap,1288
a16bbf,Allans Creek,Allans Creek,TAS,Tasman,,Stream,-43.06000137,147.8500061,Australian Gazetteer,,Official,,,,http://tlcmap.org/ghap/search?id=a16bbf,http://tlcmap.org/ghap,1288
a16bc0,Allans Creek,Allans Creek,TAS,West Coast,,Stream,-42.24000168,145.5899963,Australian Gazetteer,,Official,,,,http://tlcmap.org/ghap/search?id=a16bc0,http://tlcmap.org/ghap,1288
a16bc1,Allen Creek,Allen Creek,TAS,Circular Head,,Stream,-40.93000031,145.0899963,Australian Gazetteer,,Official,,,,http://tlcmap.org/ghap/search?id=a16bc1,http://tlcmap.org/ghap,1288
a16bc2,Allen Heights,Allen Heights,TAS,Northern Midlands,,Mountain,-41.56000137,147.6999969,Australian Gazetteer,,Official,,,,http://tlcmap.org/ghap/search?id=a16bc2,http://tlcmap.org/ghap,1288
a16bc3,Allen Point,Allen Point,TAS,Break O'Day,,Point,-41.77999878,148.2700043,Australian Gazetteer,,Unofficial,,,,http://tlcmap.org/ghap/search?id=a16bc3,http://tlcmap.org/ghap,1288
a16bc4,Allen Vale Sugarloaf,Allen Vale Sugarloaf,TAS,Central Highlands,,Hill,-42.63000107,146.9499969,Australian Gazetteer,,Unofficial,,,,http://tlcmap.org/ghap/search?id=a16bc4,http://tlcmap.org/ghap,1288
a16bc5,Allens Point,Allens Point,TAS,Flinders,,Point,-40.47999954,148.1799927,Australian Gazetteer,,Official,,,,http://tlcmap.org/ghap/search?id=a16bc5,http://tlcmap.org/ghap,1288
a16bc6,Allens Rivulet,Allens Rivulet,TAS,Kingborough,,Stream,-42.99000168,147.2200012,Australian Gazetteer,,Official,,,,http://tlcmap.org/ghap/search?id=a16bc6,http://tlcmap.org/ghap,1288
a16bc7,Allens Rivulet,Allens Rivulet,TAS,Kingborough,,Suburb/Locality,-43.00999832,147.1999969,Australian Gazetteer,,Official,,,,http://tlcmap.org/ghap/search?id=a16bc7,http://tlcmap.org/ghap,1288
a16bc8,Allenvale Rivulet,Allenvale Rivulet,TAS,Central Highlands,,Stream,-42.65999985,146.9199982,Australian Gazetteer,,Official,,,,http://tlcmap.org/ghap/search?id=a16bc8,http://tlcmap.org/ghap,1288
a16bc9,Alligator Rock,Alligator Rock,TAS,Glamorgan-Spring Bay,,Island,-41.86999893,148.3099976,Australian Gazetteer,,Official,,,,http://tlcmap.org/ghap/search?id=a16bc9,http://tlcmap.org/ghap,1288
a16bca,Allison Creek,Allison Creek,TAS,Central Coast,,Stream,-41.16999817,146.0700073,Australian Gazetteer,,Official,,,,http://tlcmap.org/ghap/search?id=a16bca,http://tlcmap.org/ghap,1288
a16bcb,Allison Marshes,Allison Marshes,TAS,Central Highlands,,Swamp,-41.90000153,146.9400024,Australian Gazetteer,,Official,,,,http://tlcmap.org/ghap/search?id=a16bcb,http://tlcmap.org/ghap,1288
a16bcc,Allports Beach,Allports Beach,TAS,Flinders,,Beach,-40.0,147.8800049,Australian Gazetteer,,Official,,,,http://tlcmap.org/ghap/search?id=a16bcc,http://tlcmap.org/ghap,1288
a16bcd,Allround Hill,Allround Hill,TAS,Central Highlands,,Hill,-42.02999878,147.0500031,Australian Gazetteer,,Official,,,,http://tlcmap.org/ghap/search?id=a16bcd,http://tlcmap.org/ghap,1288
a16bce,Allsops Drain,Allsops Drain,TAS,Meander Valley,,Drain,-41.58000183,146.5299988,Australian Gazetteer,,Official,,,,http://tlcmap.org/ghap/search?id=a16bce,http://tlcmap.org/ghap,1288
a16bcf,Allwrights Lagoons,Allwrights Lagoons,TAS,Central Highlands,,Lagoon,-42.08000183,146.8200073,Australian Gazetteer,,Official,,,,http://tlcmap.org/ghap/search?id=a16bcf,http://tlcmap.org/ghap,1288
a16bd0,Alma,Alma,TAS,Central Coast,,Place Name,-41.27000046,146.2299957,Australian Gazetteer,,Unofficial,,,,http://tlcmap.org/ghap/search?id=a16bd0,http://tlcmap.org/ghap,1288
a16bd1,Alma Bridge Reserve,Alma Bridge Reserve,TAS,Central Coast,,Reserve,-41.27000046,146.2299957,Australian Gazetteer,,Official,,,,http://tlcmap.org/ghap/search?id=a16bd1,http://tlcmap.org/ghap,1288
a16bd2,Alma Creek,Alma Creek,TAS,Glamorgan-Spring Bay,,Stream,-42.52000046,147.8899994,Australian Gazetteer,,Official,,,,http://tlcmap.org/ghap/search?id=a16bd2,http://tlcmap.org/ghap,1288
a16bd3,Alma Hill,Alma Hill,TAS,Glamorgan-Spring Bay,,Hill,-42.52999878,147.8600006,Australian Gazetteer,,Official,,,,http://tlcmap.org/ghap/search?id=a16bd3,http://tlcmap.org/ghap,1288
a16bd4,Alma Pass,Alma Pass,TAS,Central Highlands,,Pass,-42.13000107,147.0599976,Australian Gazetteer,,Official,,,,http://tlcmap.org/ghap/search?id=a16bd4,http://tlcmap.org/ghap,1288
a16bd5,Alma Point,Alma Point,TAS,West Coast,,Point,-42.16999817,145.3099976,Australian Gazetteer,,Official,,,,http://tlcmap.org/ghap/search?id=a16bd5,http://tlcmap.org/ghap,1288
a16bd6,Alma River,Alma River,TAS,Central Highlands,,Stream,-42.11999893,145.9700012,Australian Gazetteer,,Official,,,,http://tlcmap.org/ghap/search?id=a16bd6,http://tlcmap.org/ghap,1288
a16bd7,Alma Tier,Alma Tier,TAS,Central Highlands,,Mountains,-42.13000107,147.0599976,Australian Gazetteer,,Official,,,,http://tlcmap.org/ghap/search?id=a16bd7,http://tlcmap.org/ghap,1288
a16bd8,Alma Tier Forest Reserve,Alma Tier Forest Reserve,TAS,Glamorgan-Spring Bay,,Reserve,-42.50999832,147.8399963,Australian Gazetteer,,ForResv,,,,http://tlcmap.org/ghap/search?id=a16bd8,http://tlcmap.org/ghap,1288
a16bd9,Alma Tier Nature Reserve,Alma Tier Nature Reserve,TAS,Central Highlands,,Reserve,-42.13000107,147.0599976,Australian Gazetteer,,Parks 14/15,,,,http://tlcmap.org/ghap/search?id=a16bd9,http://tlcmap.org/ghap,1288
a16bda,Almas Creek,Almas Creek,TAS,Break O'Day,,Stream,-41.36999893,148.0700073,Australian Gazetteer,,Official,,,,http://tlcmap.org/ghap/search?id=a16bda,http://tlcmap.org/ghap,1288
a16bdb,Almora Creek,Almora Creek,TAS,West Coast,,Stream,-41.77999878,145.4199982,Australian Gazetteer,,Official,,,,http://tlcmap.org/ghap/search?id=a16bdb,http://tlcmap.org/ghap,1288
a16bdc,Alomes Gulch,Alomes Gulch,TAS,Huon Valley,,Cove,-43.63999939,146.2700043,Australian Gazetteer,,Official,,,,http://tlcmap.org/ghap/search?id=a16bdc,http://tlcmap.org/ghap,1288
a16bdd,Alonnah,Alonnah,TAS,Kingborough,,Suburb/Locality,-43.31000137,147.2400055,Australian Gazetteer,,Official,,,,http://tlcmap.org/ghap/search?id=a16bdd,http://tlcmap.org/ghap,1288
a16bde,Alph River,Alph River,TAS,Meander Valley,,Stream,-41.627,146.486,TAS LGA,Only accurate to LGA,Unofficial,,,,http://tlcmap.org/ghap/search?id=a16bde,http://tlcmap.org/ghap,1288
a16bdf,Alpha Moraine,Alpha Moraine,TAS,Derwent Valley,,Hill,-43.11000061,146.2299957,Australian Gazetteer,,Official,,,,http://tlcmap.org/ghap/search?id=a16bdf,http://tlcmap.org/ghap,1288
a16be0,Alpha Pinnacle,Alpha Pinnacle,TAS,Southern Midlands,,Mountain Peak,-42.58000183,147.3099976,Australian Gazetteer,,Official,,,,http://tlcmap.org/ghap/search?id=a16be0,http://tlcmap.org/ghap,1288
a16be1,Alpha Pinnacle Conservation Area,Alpha Pinnacle Conservation Area,TAS,Southern Midlands,,Reserve,-42.58000183,147.3099976,Australian Gazetteer,,Parks 14/15,,,,http://tlcmap.org/ghap/search?id=a16be1,http://tlcmap.org/ghap,1288
a16be2,Altamont,Altamont,TAS,Meander Valley,,Hill,-41.47000122,146.8600006,Australian Gazetteer,,Unofficial,,,,http://tlcmap.org/ghap/search?id=a16be2,http://tlcmap.org/ghap,1288
a16be3,Altamont,Altamont,TAS,Derwent Valley,,Historical locality,-42.77000046,147.1300049,Australian Gazetteer,,Unofficial,,,,http://tlcmap.org/ghap/search?id=a16be3,http://tlcmap.org/ghap,1288
a16be4,Altamont Creek,Altamont Creek,TAS,Derwent Valley,,Stream,-42.77000046,147.1300049,Australian Gazetteer,,Official,,,,http://tlcmap.org/ghap/search?id=a16be4,http://tlcmap.org/ghap,1288
a16be5,Alum Cliffs,Alum Cliffs,TAS,Kingborough,,Cliff,-42.95999908,147.3399963,Australian Gazetteer,,Official,,,,http://tlcmap.org/ghap/search?id=a16be5,http://tlcmap.org/ghap,1288
a16be6,Alum Cliffs,Alum Cliffs,TAS,Meander Valley,,Cliff,-41.52999878,146.4199982,Australian Gazetteer,,Official,,,,http://tlcmap.org/ghap/search?id=a16be6,http://tlcmap.org/ghap,1288
a16be7,Alum Cliffs State Reserve,Alum Cliffs State Reserve,TAS,Meander Valley,,Reserve,-41.52000046,146.4499969,Australian Gazetteer,,Parks 14/15,,,,http://tlcmap.org/ghap/search?id=a16be7,http://tlcmap.org/ghap,1288
a16be8,Alum Springs Hill,Alum Springs Hill,TAS,Southern Midlands,,Hill,-42.34999847,147.3899994,Australian Gazetteer,,Official,,,,http://tlcmap.org/ghap/search?id=a16be8,http://tlcmap.org/ghap,1288
a16be9,Alveston,Alveston,TAS,Meander Valley,,Populated Place,-41.52000046,146.6600037,Australian Gazetteer,,Unofficial,,,,http://tlcmap.org/ghap/search?id=a16be9,http://tlcmap.org/ghap,1288
a16bea,Amber Creek,Amber Creek,TAS,Dorset,,Stream,-41.00999832,148.0399933,Australian Gazetteer,,Official,,,,http://tlcmap.org/ghap/search?id=a16bea,http://tlcmap.org/ghap,1288
a16beb,Amber Creek,Amber Creek,TAS,West Coast,,Stream,-41.95000076,145.3899994,Australian Gazetteer,,Official,,,,http://tlcmap.org/ghap/search?id=a16beb,http://tlcmap.org/ghap,1288
a16bec,Amber Hill,Amber Hill,TAS,Dorset,,Hill,-41.0,148.0200043,Australian Gazetteer,,Official,,,,http://tlcmap.org/ghap/search?id=a16bec,http://tlcmap.org/ghap,1288
a16bed,Ambleside,Ambleside,TAS,Devonport,,Suburb/Locality,-41.20000076,146.3699951,Australian Gazetteer,,Official,,,,http://tlcmap.org/ghap/search?id=a16bed,http://tlcmap.org/ghap,1288
a16bee,Amelia Hill,Amelia Hill,TAS,Circular Head,,Hill,-41.61999893,145.0500031,Australian Gazetteer,,Official,,,,http://tlcmap.org/ghap/search?id=a16bee,http://tlcmap.org/ghap,1288
a16bef,Amelias Picnic Ground,Amelias Picnic Ground,TAS,Dorset,,Reserve,-41.22999954,147.5399933,Australian Gazetteer,,Rescinded 2016,,,,http://tlcmap.org/ghap/search?id=a16bef,http://tlcmap.org/ghap,1288
a16bf0,Amita Creek,Amita Creek,TAS,Huon Valley,,Stream,-43.33000183,146.3300018,Australian Gazetteer,,Official,,,,http://tlcmap.org/ghap/search?id=a16bf0,http://tlcmap.org/ghap,1288
a16bf1,Amos Grass,Amos Grass,TAS,Dorset,,Grassland,-41.29999924,147.6399994,Australian Gazetteer,,Unofficial,,,,http://tlcmap.org/ghap/search?id=a16bf1,http://tlcmap.org/ghap,1288
a16bf2,Amos Hill,Amos Hill,TAS,Circular Head,,Hill,-40.88999939,145.1499939,Australian Gazetteer,,Official,,,,http://tlcmap.org/ghap/search?id=a16bf2,http://tlcmap.org/ghap,1288
a16bf3,Amy Creek,Amy Creek,TAS,West Coast,,Stream,-41.84999847,145.0800018,Australian Gazetteer,,Official,,,,http://tlcmap.org/ghap/search?id=a16bf3,http://tlcmap.org/ghap,1288
a16bf4,Amy Harbour,Amy Harbour,TAS,Huon Valley,,Harbour,-43.54000092,146.1000061,Australian Gazetteer,,Official,,,,http://tlcmap.org/ghap/search?id=a16bf4,http://tlcmap.org/ghap,1288
a16bf5,Amy Range,Amy Range,TAS,Huon Valley,,Mountains,-43.54999924,146.1000061,Australian Gazetteer,,Official,,,,http://tlcmap.org/ghap/search?id=a16bf5,http://tlcmap.org/ghap,1288
a16bf6,Ancanthe Park,Ancanthe Park,TAS,Hobart,,Reserve,-42.86000061,147.2700043,Australian Gazetteer,,Official,,,,http://tlcmap.org/ghap/search?id=a16bf6,http://tlcmap.org/ghap,1288
a16bf7,Anchor Creek,Anchor Creek,TAS,Break O'Day,,Stream,-41.22000122,148.0099945,Australian Gazetteer,,Official,,,,http://tlcmap.org/ghap/search?id=a16bf7,http://tlcmap.org/ghap,1288
a16bf8,Anchor Mine,Anchor Mine,TAS,Break O'Day,,Mine,-41.22999954,148.0099945,Australian Gazetteer,,Unofficial,,,,http://tlcmap.org/ghap/search?id=a16bf8,http://tlcmap.org/ghap,1288
a16bf9,Anchor Point,Anchor Point,TAS,West Tamar,,Point,-41.13000107,146.8099976,Australian Gazetteer,,Official,,,,http://tlcmap.org/ghap/search?id=a16bf9,http://tlcmap.org/ghap,1288
a16bfa,Anchor Rock,Anchor Rock,TAS,Huon Valley,,Island,-54.47999954,158.9299927,Australian Gazetteer,,Official,,,,http://tlcmap.org/ghap/search?id=a16bfa,http://tlcmap.org/ghap,1288
a16bfb,Anchorage Cove,Anchorage Cove,TAS,Huon Valley,,Cove,-43.52000046,146.3200073,Australian Gazetteer,,Official,,,,http://tlcmap.org/ghap/search?id=a16bfb,http://tlcmap.org/ghap,1288
a16bfc,Anderson Bay,Anderson Bay,TAS,Dorset,,Bay,-40.95000076,147.4199982,Australian Gazetteer,,Official,,,,http://tlcmap.org/ghap/search?id=a16bfc,http://tlcmap.org/ghap,1288
a16bfd,Anderson Bluff,Anderson Bluff,TAS,Huon Valley,,Mountain,-43.22000122,146.5700073,Australian Gazetteer,,Official,,,,http://tlcmap.org/ghap/search?id=a16bfd,http://tlcmap.org/ghap,1288
a16bfe,Anderson Creek,Anderson Creek,TAS,Break O'Day,,Stream,-41.24000168,148.0399933,Australian Gazetteer,,Official,,,,http://tlcmap.org/ghap/search?id=a16bfe,http://tlcmap.org/ghap,1288
a16bff,Anderson Island,Anderson Island,TAS,Flinders,,Island,-40.29999924,148.1000061,Australian Gazetteer,,Official,,,,http://tlcmap.org/ghap/search?id=a16bff,http://tlcmap.org/ghap,1288
a16c00,Andersons Creek,Andersons Creek,TAS,Southern Midlands,,Stream,-42.61000061,147.1199951,Australian Gazetteer,,Official,,,,http://tlcmap.org/ghap/search?id=a16c00,http://tlcmap.org/ghap,1288
a16c01,Andersons Creek,Andersons Creek,TAS,West Tamar,,Stream,-41.20000076,146.7599945,Australian Gazetteer,,Official,,,,http://tlcmap.org/ghap/search?id=a16c01,http://tlcmap.org/ghap,1288
a16c02,Andersons Creek Forest Reserve,Andersons Creek Forest Reserve,TAS,West Tamar,,Reserve,-41.18000031,146.75,Australian Gazetteer,,ForResv,,,,http://tlcmap.org/ghap/search?id=a16c02,http://tlcmap.org/ghap,1288
a16c03,Andersons Nature Reserve,Andersons Nature Reserve,TAS,Southern Midlands,,Reserve,-42.59999847,147.1399994,Australian Gazetteer,,Parks 14/15,,,,http://tlcmap.org/ghap/search?id=a16c03,http://tlcmap.org/ghap,1288
a16c04,Andersons Ridge,Andersons Ridge,TAS,Southern Midlands,,Ridge2,-42.63000107,147.1600037,Australian Gazetteer,,Official,,,,http://tlcmap.org/ghap/search?id=a16c04,http://tlcmap.org/ghap,1288
a16c05,Andover,Andover,TAS,Southern Midlands,,Suburb/Locality,-42.33000183,147.4499969,Australian Gazetteer,,Official,,,,http://tlcmap.org/ghap/search?id=a16c05,http://tlcmap.org/ghap,1288
a16c06,Andrew Divide,Andrew Divide,TAS,West Coast,,Mountains,-42.20999908,145.6100006,Australian Gazetteer,,Official,,,,http://tlcmap.org/ghap/search?id=a16c06,http://tlcmap.org/ghap,1288
a16c07,Andrew River,Andrew River,TAS,West Coast,,Stream,-42.31999969,145.7100067,Australian Gazetteer,,Official,,,,http://tlcmap.org/ghap/search?id=a16c07,http://tlcmap.org/ghap,1288
a16c08,Andrews Bay,Andrews Bay,TAS,Central Highlands,,Bay,-42.18000031,147.1300049,Australian Gazetteer,,Official,,,,http://tlcmap.org/ghap/search?id=a16c08,http://tlcmap.org/ghap,1288
a16c09,Andrews Creek,Andrews Creek,TAS,Latrobe,,Stream,-41.18000031,146.4400024,Australian Gazetteer,,Official,,,,http://tlcmap.org/ghap/search?id=a16c09,http://tlcmap.org/ghap,1288
a16c0a,Andromeda Creek,Andromeda Creek,TAS,Derwent Valley,,Stream,-42.79999924,146.6999969,Australian Gazetteer,,Official,,,,http://tlcmap.org/ghap/search?id=a16c0a,http://tlcmap.org/ghap,1288
a16c0b,Angel Cliffs,Angel Cliffs,TAS,West Coast,,Cliff,-42.61999893,145.75,Australian Gazetteer,,Official,,,,http://tlcmap.org/ghap/search?id=a16c0b,http://tlcmap.org/ghap,1288
a16c0c,Angel Falls,Angel Falls,TAS,Derwent Valley,,Waterfall,-42.97000122,146.4499969,Australian Gazetteer,,Official,,,,http://tlcmap.org/ghap/search?id=a16c0c,http://tlcmap.org/ghap,1288
a16c0d,Angevin Ridge,Angevin Ridge,TAS,Central Highlands,,Ridge2,-42.29000092,146.1300049,Australian Gazetteer,,Unofficial,,,,http://tlcmap.org/ghap/search?id=a16c0d,http://tlcmap.org/ghap,1288
a16c0e,Anglers Bend,Anglers Bend,TAS,Central Coast,,Stream,-41.28,146.041,TAS LGA,Only accurate to LGA,Unofficial,,,,http://tlcmap.org/ghap/search?id=a16c0e,http://tlcmap.org/ghap,1288
a16c0f,Anglers Creek,Anglers Creek,TAS,Northern Midlands,,Stream,-42.22000122,147.8300018,Australian Gazetteer,,Official,,,,http://tlcmap.org/ghap/search?id=a16c0f,http://tlcmap.org/ghap,1288
a16c10,Angus Rivulet,Angus Rivulet,TAS,Central Highlands,,Stream,-42.56999969,146.7200012,Australian Gazetteer,,Official,,,,http://tlcmap.org/ghap/search?id=a16c10,http://tlcmap.org/ghap,1288
a16c11,Animal Creek,Animal Creek,TAS,Waratah-Wynyard,,Stream,-41.63000107,145.6199951,Australian Gazetteer,,Official,,,,http://tlcmap.org/ghap/search?id=a16c11,http://tlcmap.org/ghap,1288
a16c12,Anio Creek,Anio Creek,TAS,West Coast,,Stream,-41.63000107,145.8099976,Australian Gazetteer,,Official,,,,http://tlcmap.org/ghap/search?id=a16c12,http://tlcmap.org/ghap,1288
a16c13,Ann Bay,Ann Bay,TAS,Circular Head,,Bay,-40.88000107,144.6799927,Australian Gazetteer,,Official,,,,http://tlcmap.org/ghap/search?id=a16c13,http://tlcmap.org/ghap,1288
a16c14,Ann Creek,Ann Creek,TAS,Break O'Day,,Stream,-41.34999847,148.1399994,Australian Gazetteer,,Official,,,,http://tlcmap.org/ghap/search?id=a16c14,http://tlcmap.org/ghap,1288
a16c15,Ann Islet,Ann Islet,TAS,Flinders,,Island,-40.22999954,147.9100037,Australian Gazetteer,,Official,,,,http://tlcmap.org/ghap/search?id=a16c15,http://tlcmap.org/ghap,1288
a16c16,Annakananda,Annakananda,TAS,Derwent Valley,,Cave,-42.93000031,146.4400024,Australian Gazetteer,,Official,,,,http://tlcmap.org/ghap/search?id=a16c16,http://tlcmap.org/ghap,1288
a16c17,Anne Gorge,Anne Gorge,TAS,Derwent Valley,,Ravine,-43.02000046,146.3899994,Australian Gazetteer,,Official,,,,http://tlcmap.org/ghap/search?id=a16c17,http://tlcmap.org/ghap,1288
a16c18,Anne River,Anne River,TAS,Derwent Valley,,Stream,-43.04000092,146.4100037,Australian Gazetteer,,Official,,,,http://tlcmap.org/ghap/search?id=a16c18,http://tlcmap.org/ghap,1288
a16c19,Annes Bay,Annes Bay,TAS,Circular Head,,Cove,-40.66999817,144.7400055,Australian Gazetteer,,Official,,,,http://tlcmap.org/ghap/search?id=a16c19,http://tlcmap.org/ghap,1288
a16c1a,Annie,Annie,TAS,Southern Midlands,,Place Name,-42.40999985,147.3300018,Australian Gazetteer,,Unofficial,,,,http://tlcmap.org/ghap/search?id=a16c1a,http://tlcmap.org/ghap,1288
a16c1b,Annie Bay,Annie Bay,TAS,Southern Midlands,,Bay,-42.40999985,147.3300018,Australian Gazetteer,,Unofficial,,,,http://tlcmap.org/ghap/search?id=a16c1b,http://tlcmap.org/ghap,1288
a16c1c,Annies Creek,Annies Creek,TAS,Glamorgan-Spring Bay,,Stream,-41.93999863,147.9499969,Australian Gazetteer,,Official,,,,http://tlcmap.org/ghap/search?id=a16c1c,http://tlcmap.org/ghap,1288
a16c1d,Anniversary Bay,Anniversary Bay,TAS,Circular Head,,Bay,-40.88999939,145.5299988,Australian Gazetteer,,Official,,,,http://tlcmap.org/ghap/search?id=a16c1d,http://tlcmap.org/ghap,1288
a16c1e,Anniversary Point,Anniversary Point,TAS,Circular Head,,Point,-40.88999939,145.5299988,Australian Gazetteer,,Official,,,,http://tlcmap.org/ghap/search?id=a16c1e,http://tlcmap.org/ghap,1288
a16c1f,Anson Creek,Anson Creek,TAS,Break O'Day,,Stream,-41.34000015,148.0700073,Australian Gazetteer,,Unofficial,,,,http://tlcmap.org/ghap/search?id=a16c1f,http://tlcmap.org/ghap,1288
a16c20,Ansons Bay,Ansons Bay,TAS,Break O'Day,,Bay,-41.04000092,148.2700043,Australian Gazetteer,,Official,,,,http://tlcmap.org/ghap/search?id=a16c20,http://tlcmap.org/ghap,1288
a16c21,Ansons Bay,Ansons Bay,TAS,Break O'Day,,Suburb/Locality,-41.02999878,148.2599945,Australian Gazetteer,,Official,,,,http://tlcmap.org/ghap/search?id=a16c21,http://tlcmap.org/ghap,1288
a16c22,Ansons Bay Conservation Area,Ansons Bay Conservation Area,TAS,Break O'Day,,Reserve,-41.02999878,148.2599945,Australian Gazetteer,,Parks 14/15,,,,http://tlcmap.org/ghap/search?id=a16c22,http://tlcmap.org/ghap,1288
a16c23,Ansons River,Ansons River,TAS,Break O'Day,,Stream,-41.15999985,148.1499939,Australian Gazetteer,,Official,,,,http://tlcmap.org/ghap/search?id=a16c23,http://tlcmap.org/ghap,1288
a16c24,Ansteys Hill,Ansteys Hill,TAS,Northern Midlands,,Hill,-42.08000183,147.5700073,Australian Gazetteer,,Official,,,,http://tlcmap.org/ghap/search?id=a16c24,http://tlcmap.org/ghap,1288
a16c25,Anthill,Anthill,TAS,Central Highlands,,Hill,-42.18000031,146.9499969,Australian Gazetteer,,Unofficial,,,,http://tlcmap.org/ghap/search?id=a16c25,http://tlcmap.org/ghap,1288
a16c26,Anthony Beach,Anthony Beach,TAS,Circular Head,,Beach,-40.79999924,145.1799927,Australian Gazetteer,,Official,,,,http://tlcmap.org/ghap/search?id=a16c26,http://tlcmap.org/ghap,1288
a16c27,Anthony Dam,Anthony Dam,TAS,West Coast,,Dam,-41.86000061,145.6199951,Australian Gazetteer,,Official,,,,http://tlcmap.org/ghap/search?id=a16c27,http://tlcmap.org/ghap,1288
a16c28,Anthony Dam,Anthony Dam,TAS,West Coast,,Dam,-41.86000061,145.6100006,Australian Gazetteer,,Official,,,,http://tlcmap.org/ghap/search?id=a16c28,http://tlcmap.org/ghap,1288
a16c29,Anthony Levee,Anthony Levee,TAS,West Coast,,Dam,-41.86000061,145.6199951,Australian Gazetteer,,Official,,,,http://tlcmap.org/ghap/search?id=a16c29,http://tlcmap.org/ghap,1288
a16c2a,Anthony River,Anthony River,TAS,West Coast,,Stream,-41.84000015,145.6499939,Australian Gazetteer,,Official,,,,http://tlcmap.org/ghap/search?id=a16c2a,http://tlcmap.org/ghap,1288
a16c2b,Antill Ponds,Antill Ponds,TAS,Southern Midlands,,Suburb/Locality,-42.20000076,147.3999939,Australian Gazetteer,,Official,,,,http://tlcmap.org/ghap/search?id=a16c2b,http://tlcmap.org/ghap,1288
a16c2c,Anvil Rock,Anvil Rock,TAS,Flinders,,Island,-39.43000031,147.3699951,Australian Gazetteer,,Official,,,,http://tlcmap.org/ghap/search?id=a16c2c,http://tlcmap.org/ghap,1288
a16c2d,Anzac Park,Anzac Park,TAS,Central Coast,,Reserve,-41.15000153,146.1600037,Australian Gazetteer,,Official,,,,http://tlcmap.org/ghap/search?id=a16c2d,http://tlcmap.org/ghap,1288
a16c2e,Anzac Park,Anzac Park,TAS,Circular Head,,Reserve,-40.84000015,145.1199951,Australian Gazetteer,,Official,,,,http://tlcmap.org/ghap/search?id=a16c2e,http://tlcmap.org/ghap,1288
a16c2f,Anzac Park,Anzac Park,TAS,Northern Midlands,,Reserve,-41.56999969,147.1699982,Australian Gazetteer,,Rescinded,,,,http://tlcmap.org/ghap/search?id=a16c2f,http://tlcmap.org/ghap,1288
a16c30,Anzac Park,Anzac Park,TAS,Waratah-Wynyard,,Reserve,-41.02999878,145.8300018,Australian Gazetteer,,Official,,,,http://tlcmap.org/ghap/search?id=a16c30,http://tlcmap.org/ghap,1288
a16c31,A-One Hill,A-One Hill,TAS,Break O'Day,,Hill,-41.63999939,147.8800049,Australian Gazetteer,,Official,,,,http://tlcmap.org/ghap/search?id=a16c31,http://tlcmap.org/ghap,1288
a16c32,Apex Park,Apex Park,TAS,Glenorchy,,Park,-42.84000015,147.3099976,Australian Gazetteer,,Official,,,,http://tlcmap.org/ghap/search?id=a16c32,http://tlcmap.org/ghap,1288
a16c33,Apex Park,Apex Park,TAS,Huon Valley,,Park,-43.02999878,147.0399933,Australian Gazetteer,,Official,,,,http://tlcmap.org/ghap/search?id=a16c33,http://tlcmap.org/ghap,1288
a16c34,Apex Point,Apex Point,TAS,Tasman,,Point,-43.09999847,147.7100067,Australian Gazetteer,,Official,,,,http://tlcmap.org/ghap/search?id=a16c34,http://tlcmap.org/ghap,1288
a16c35,Apollo Bay,Apollo Bay,TAS,Kingborough,,Bay,-43.15000153,147.2799988,Australian Gazetteer,,Official,,,,http://tlcmap.org/ghap/search?id=a16c35,http://tlcmap.org/ghap,1288
a16c36,Apollo Bay,Apollo Bay,TAS,Kingborough,,Suburb/Locality,-43.15999985,147.2700043,Australian Gazetteer,,Official,,,,http://tlcmap.org/ghap/search?id=a16c36,http://tlcmap.org/ghap,1288
a16c37,Apollos Den,Apollos Den,TAS,Meander Valley,,Cave,-41.627,146.486,TAS LGA,Only accurate to LGA,Unofficial,,,,http://tlcmap.org/ghap/search?id=a16c37,http://tlcmap.org/ghap,1288
a16c38,Appeldorff Creek,Appeldorff Creek,TAS,Glenorchy,,Stream,-42.84000015,147.1799927,Australian Gazetteer,,Official,,,,http://tlcmap.org/ghap/search?id=a16c38,http://tlcmap.org/ghap,1288
a16c39,Appetite Hill,Appetite Hill,TAS,Break O'Day,,Hill,-41.63999939,148.0099945,Australian Gazetteer,,Official,,,,http://tlcmap.org/ghap/search?id=a16c39,http://tlcmap.org/ghap,1288
a16c3a,Appin Creek,Appin Creek,TAS,George Town,,Stream,-41.18999863,146.9299927,Australian Gazetteer,,Official,,,,http://tlcmap.org/ghap/search?id=a16c3a,http://tlcmap.org/ghap,1288
a16c3b,Appin Forest,Appin Forest,TAS,George Town,,Forest,-41.18999863,146.9400024,Australian Gazetteer,,Unofficial,,,,http://tlcmap.org/ghap/search?id=a16c3b,http://tlcmap.org/ghap,1288
a16c3c,Apple Orchard,Apple Orchard,TAS,Flinders,,District1,-40.36000061,148.1799927,Australian Gazetteer,,Unofficial,,,,http://tlcmap.org/ghap/search?id=a16c3c,http://tlcmap.org/ghap,1288
a16c3d,Apple Orchard Point,Apple Orchard Point,TAS,Flinders,,Point,-40.31000137,148.2100067,Australian Gazetteer,,Official,,,,http://tlcmap.org/ghap/search?id=a16c3d,http://tlcmap.org/ghap,1288
a16c3e,Applebee Creek,Applebee Creek,TAS,Central Coast,,Stream,-41.24000168,146.0399933,Australian Gazetteer,,Official,,,,http://tlcmap.org/ghap/search?id=a16c3e,http://tlcmap.org/ghap,1288
a16c3f,Appleby Creek,Appleby Creek,TAS,Latrobe,,Stream,-41.16999817,146.5099945,Australian Gazetteer,,Official,,,,http://tlcmap.org/ghap/search?id=a16c3f,http://tlcmap.org/ghap,1288
a16c40,Appleby Creek Reservoir,Appleby Creek Reservoir,TAS,Latrobe,,Lake,-41.18000031,146.5099945,Australian Gazetteer,,Unofficial,,,,http://tlcmap.org/ghap/search?id=a16c40,http://tlcmap.org/ghap,1288
a16c41,Appledore,Appledore,TAS,Devonport,,District1,-41.18999863,146.3600006,Australian Gazetteer,,Unofficial,,,,http://tlcmap.org/ghap/search?id=a16c41,http://tlcmap.org/ghap,1288
a16c42,Apprentice Rocks,Apprentice Rocks,TAS,Circular Head,,Island,-40.38999939,144.9600067,Australian Gazetteer,,Official,,,,http://tlcmap.org/ghap/search?id=a16c42,http://tlcmap.org/ghap,1288
a16c43,Apricot Creek,Apricot Creek,TAS,Waratah-Wynyard,,Stream,-41.41999817,145.3800049,Australian Gazetteer,,Official,,,,http://tlcmap.org/ghap/search?id=a16c43,http://tlcmap.org/ghap,1288
a16c44,Apslawn,Apslawn,TAS,Glamorgan-Spring Bay,,Historic site,-41.95000076,148.1499939,Australian Gazetteer,,Unofficial,,,,http://tlcmap.org/ghap/search?id=a16c44,http://tlcmap.org/ghap,1288
a16c45,Apslawn,Apslawn,TAS,Glamorgan-Spring Bay,,Suburb/Locality,-41.95000076,148.1799927,Australian Gazetteer,,Official,,,,http://tlcmap.org/ghap/search?id=a16c45,http://tlcmap.org/ghap,1288
a16c46,Apslawn Creek,Apslawn Creek,TAS,Glamorgan-Spring Bay,,Stream,-41.93999863,148.1799927,Australian Gazetteer,,Official,,,,http://tlcmap.org/ghap/search?id=a16c46,http://tlcmap.org/ghap,1288
a16c47,Apslawn Forest Reserve,Apslawn Forest Reserve,TAS,Glamorgan-Spring Bay,,Reserve,-41.91999817,148.1499939,Australian Gazetteer,,ForResv,,,,http://tlcmap.org/ghap/search?id=a16c47,http://tlcmap.org/ghap,1288
a16c48,Apsley,Apsley,TAS,Break O'Day,,Electorate,-41.423,148.053,TAS LGA,Only accurate to LGA,Official,,,,http://tlcmap.org/ghap/search?id=a16c48,http://tlcmap.org/ghap,1288
a16c49,Apsley,Apsley,TAS,Central Highlands,,Suburb/Locality,-42.43000031,147.1399994,Australian Gazetteer,,Official,,,,http://tlcmap.org/ghap/search?id=a16c49,http://tlcmap.org/ghap,1288
a16c4a,Apsley Conservation Area,Apsley Conservation Area,TAS,Glamorgan-Spring Bay,,Reserve,-41.86000061,148.25,Australian Gazetteer,,Parks 14/15,,,,http://tlcmap.org/ghap/search?id=a16c4a,http://tlcmap.org/ghap,1288
a16c4b,Apsley Gorge,Apsley Gorge,TAS,Break O'Day,,Ravine,-41.86000061,148.1699982,Australian Gazetteer,,Official,,,,http://tlcmap.org/ghap/search?id=a16c4b,http://tlcmap.org/ghap,1288
a16c4c,Apsley Marshes,Apsley Marshes,TAS,Glamorgan-Spring Bay,,Swamp,-41.97000122,148.1999969,Australian Gazetteer,,Official,,,,http://tlcmap.org/ghap/search?id=a16c4c,http://tlcmap.org/ghap,1288
a16c4d,Apsley Myrtle Forest Reserve,Apsley Myrtle Forest Reserve,TAS,Break O'Day,,Reserve,-41.423,148.053,TAS LGA,Only accurate to LGA,Unofficial,,,,http://tlcmap.org/ghap/search?id=a16c4d,http://tlcmap.org/ghap,1288
a16c4e,Apsley River,Apsley River,TAS,Break O'Day,,Stream,-41.84999847,148.1399994,Australian Gazetteer,,Official,,,,http://tlcmap.org/ghap/search?id=a16c4e,http://tlcmap.org/ghap,1288
a16c4f,Apteds Creek,Apteds Creek,TAS,Break O'Day,,Stream,-41.25999832,148.1199951,Australian Gazetteer,,Official,,,,http://tlcmap.org/ghap/search?id=a16c4f,http://tlcmap.org/ghap,1288
a16c50,Aquatic Point,Aquatic Point,TAS,West Tamar,,Point,-41.43999863,147.0700073,Australian Gazetteer,,Official,,,,http://tlcmap.org/ghap/search?id=a16c50,http://tlcmap.org/ghap,1288
a16c51,Arba Creek,Arba Creek,TAS,Dorset,,Stream,-41.15999985,147.7799988,Australian Gazetteer,,Official,,,,http://tlcmap.org/ghap/search?id=a16c51,http://tlcmap.org/ghap,1288
a16c52,Arba Hill,Arba Hill,TAS,Dorset,,Hill,-41.15999985,147.75,Australian Gazetteer,,Official,,,,http://tlcmap.org/ghap/search?id=a16c52,http://tlcmap.org/ghap,1288
a16c53,Arbor Park,Arbor Park,TAS,Launceston,,Park,-41.43999863,147.4799957,Australian Gazetteer,,Official,,,,http://tlcmap.org/ghap/search?id=a16c53,http://tlcmap.org/ghap,1288
a16c54,Arbothnots Lagoon,Arbothnots Lagoon,TAS,Flinders,,Lagoon,-39.97000122,147.8999939,Australian Gazetteer,,Official,,,,http://tlcmap.org/ghap/search?id=a16c54,http://tlcmap.org/ghap,1288
a16c55,Arcadia Mine,Arcadia Mine,TAS,Dorset,,Mine,-40.99000168,148.0399933,Australian Gazetteer,,Unofficial,,,,http://tlcmap.org/ghap/search?id=a16c55,http://tlcmap.org/ghap,1288
a16c56,Arcadia Plains,Arcadia Plains,TAS,Derwent Valley,,Plain,-42.72999954,146.7299957,Australian Gazetteer,,Official,,,,http://tlcmap.org/ghap/search?id=a16c56,http://tlcmap.org/ghap,1288
a16c57,Arcadian Home,Arcadian Home,TAS,Derwent Valley,,Historic site,-42.70999908,146.6999969,Australian Gazetteer,,Unofficial,,,,http://tlcmap.org/ghap/search?id=a16c57,http://tlcmap.org/ghap,1288
a16c58,Arcadian Siding,Arcadian Siding,TAS,Derwent Valley,,Railway Station,-42.70999908,146.6999969,Australian Gazetteer,,Official,,,,http://tlcmap.org/ghap/search?id=a16c58,http://tlcmap.org/ghap,1288
a16c59,Arch Rock,Arch Rock,TAS,Kingborough,,Island,-43.27999878,147.1699982,Australian Gazetteer,,Official,,,,http://tlcmap.org/ghap/search?id=a16c59,http://tlcmap.org/ghap,1288
a16c5a,Arched Island,Arched Island,TAS,Kingborough,,Island,-43.43999863,147.3300018,Australian Gazetteer,,Official,,,,http://tlcmap.org/ghap/search?id=a16c5a,http://tlcmap.org/ghap,1288
a16c5b,Archer Creek,Archer Creek,TAS,Northern Midlands,,Stream,-41.68000031,147.7400055,Australian Gazetteer,,Official,,,,http://tlcmap.org/ghap/search?id=a16c5b,http://tlcmap.org/ghap,1288
a16c5c,Archers Flat,Archers Flat,TAS,Glamorgan-Spring Bay,,Plain,-42.18999863,148.0399933,Australian Gazetteer,,Unofficial,,,,http://tlcmap.org/ghap/search?id=a16c5c,http://tlcmap.org/ghap,1288
a16c5d,Archers Knob,Archers Knob,TAS,Latrobe,,Hill,-41.13000107,146.6199951,Australian Gazetteer,,Official,,,,http://tlcmap.org/ghap/search?id=a16c5d,http://tlcmap.org/ghap,1288
a16c5e,Archers Lagoon,Archers Lagoon,TAS,Glamorgan-Spring Bay,,Lagoon,-42.266,147.97,TAS LGA,Only accurate to LGA,Unofficial,,,,http://tlcmap.org/ghap/search?id=a16c5e,http://tlcmap.org/ghap,1288
a16c5f,Archers Sugarloaf,Archers Sugarloaf,TAS,Meander Valley,,Hill,-41.66999817,146.6100006,Australian Gazetteer,,Official,,,,http://tlcmap.org/ghap/search?id=a16c5f,http://tlcmap.org/ghap,1288
a16c60,Ardross Hill,Ardross Hill,TAS,Glamorgan-Spring Bay,,Hill,-42.59000015,147.6499939,Australian Gazetteer,,Official,,,,http://tlcmap.org/ghap/search?id=a16c60,http://tlcmap.org/ghap,1288
a16c61,Argent Dam,Argent Dam,TAS,West Coast,,Lake,-41.79999924,145.4100037,Australian Gazetteer,,Official,,,,http://tlcmap.org/ghap/search?id=a16c61,http://tlcmap.org/ghap,1288
a16c62,Argent Reservoir,Argent Reservoir,TAS,West Coast,,Lake,-41.79999924,145.4100037,Australian Gazetteer,,Unofficial,,,,http://tlcmap.org/ghap/search?id=a16c62,http://tlcmap.org/ghap,1288
a16c63,Argent River,Argent River,TAS,West Coast,,Stream,-41.79000092,145.4199982,Australian Gazetteer,,Official,,,,http://tlcmap.org/ghap/search?id=a16c63,http://tlcmap.org/ghap,1288
a16c64,Argent Tunnel,Argent Tunnel,TAS,West Coast,,Tunnel,-41.81999969,145.4100037,Australian Gazetteer,,Official,,,,http://tlcmap.org/ghap/search?id=a16c64,http://tlcmap.org/ghap,1288
a16c65,Argo Creek,Argo Creek,TAS,Break O'Day,,Stream,-41.33000183,148.2299957,Australian Gazetteer,,Official,,,,http://tlcmap.org/ghap/search?id=a16c65,http://tlcmap.org/ghap,1288
a16c66,Argonaut Creek,Argonaut Creek,TAS,Break O'Day,,Stream,-41.29999924,148.1699982,Australian Gazetteer,,Official,,,,http://tlcmap.org/ghap/search?id=a16c66,http://tlcmap.org/ghap,1288
a16c67,Argus Creek,Argus Creek,TAS,Break O'Day,,Stream,-41.34000015,148.1999969,Australian Gazetteer,,Official,,,,http://tlcmap.org/ghap/search?id=a16c67,http://tlcmap.org/ghap,1288
a16c68,Argyle Creek,Argyle Creek,TAS,Dorset,,Stream,-41.20000076,147.75,Australian Gazetteer,,Official,,,,http://tlcmap.org/ghap/search?id=a16c68,http://tlcmap.org/ghap,1288
